     2.10           OBSERVATION DATA    M (MIXED)           RINEX VERSION / TYPE
ComNav                                                      PGM / RUN BY / DATE 
comnav12                                                    MARKER NAME         
                                                            OBSERVER / AGENCY   
N31L04806           ComNav              55.0                REC # / TYPE / VERS 
                    Unknown                                 ANT # / TYPE        
  3752814.8313 -4538372.7995 -2442731.1577                  APPROX POSITION XYZ 
        1.8000        0.0000        0.0000                  ANTENNA: DELTA H/E/N
     1     1                                                WAVELENGTH FACT L1/2
     8    C1    L1    S1    D1    L2    S2    D2    P2      # / TYPES OF OBSERV 
     1.000                                                  INTERVAL
  2023     7    24    21     9   40.000000      GPS         TIME OF FIRST OBS   
                                                            END OF HEADER       
 23  7 24 21  9 40.0000000  0 15G24G11G28G25G29G12G20G05G18R14R15R13            
                                R24R23R17                                       
  22610445.289   118818665.57808        49.000       -3182.898    92586007.86706
        39.000       -2480.191    22610448.273  
  22734458.336   119470302.48807        42.000       -2977.117    93093808.48803
        20.000       -2319.832    22734462.555  
  23873264.555   125454835.52706        41.000        2301.316                  
                                                
  21112328.109   110945960.14808        49.000        1991.238    86451499.32005
        33.000        1551.602    21112332.180  
  21961548.367   115408728.18808        49.000         431.016    89928884.91007
        43.000         335.852    21961550.789  
  21067494.414   110710439.41807        44.000         -58.734    86267871.25805
        35.000         -45.805    21067495.484  
  22395324.047   117688226.51607        46.000        -148.719    91705118.90204
        29.000        -115.895    22395324.969  
  22611358.703   118823505.35507        47.000        1497.289    92589763.17605
        32.000        1166.730    22611360.203  
  23451742.258   123239801.52007        44.000        3302.137    96030985.38304
        26.000        2573.070    23451749.820  
  19642330.359   104704717.57008        51.000        1982.496    81436977.03908
        51.000        1541.832    19642333.156  
  23384648.445   124960486.10506        38.000        4079.723                  
                                                
  20257808.313   108175480.43806        41.000       -2321.680    84136489.07406
        41.000       -1805.813    20257809.008  
  20016729.305   107038442.01208        51.000       -1965.520    83252076.78108
        48.000       -1528.492    20016729.430  
  23301748.555   124648605.12106        40.000       -3599.820                  
                                                
  20698810.188   110763458.14108        50.000        1323.672    86149389.28908
        49.000        1029.699    20698810.008  
 23  7 24 21  9 41.0000000  0 15G24G11G28G25G29G12G20G05G18R14R15R13            
                                R24R23R17                                       
  22611052.406   118821854.87508        49.000       -3182.898    92588493.04307
        42.000       -2480.195    22611055.063  
  22735026.523   119473286.58606        41.000       -2977.742    93096133.76203
        20.000       -2320.324    22735030.445  
  23872827.789   125452541.02316        41.000        2300.820    97755251.62114
        24.000        1792.855    23872831.336  
  21111950.391   110943975.70708        49.000        1990.906    86449953.01205
        33.000        1551.336    21111954.547  
  21961467.688   115408303.87108        49.000         430.809    89928554.27307
        43.000         335.695    21961470.063  
  21067506.508   110710504.75407        43.000         -59.223    86267922.18005
        35.000         -46.156    21067507.953  
  22395353.750   117688382.10507        46.000        -149.426    91705240.15204
        29.000        -116.430    22395354.555  
  22611075.078   118822014.62107        47.000        1497.027    92588601.57405
        32.000        1166.520    22611076.516  
  23451115.531   123236505.88707        44.000        3301.980    96028417.37904
        27.000        2572.961    23451122.680  
  19641959.766   104702742.06608        51.000        1981.766    81435440.53508
        51.000        1541.414    19641962.414  
  23383886.047   124956413.75406        37.000        4079.438                  
                                                
  20258244.328   108177809.21106        41.000       -2322.180    84138300.35206
        41.000       -1806.246    20258244.781  
  20017098.102   107040414.22708        51.000       -1965.801    83253610.73408
        48.000       -1528.977    20017098.211  
  23302422.406   124652211.46906        40.000       -3599.652                  
                                                
  20698564.031   110762141.21508        50.000        1323.348    86148365.00808
        49.000        1029.328    20698564.125  
 23  7 24 21  9 42.0000000  0 15G24G11G28G25G29G12G20G05G18R14R15R13            
                                R24R23R17                                       
  22611660.313   118825048.99208        48.000       -3182.914    92590981.97707
        42.000       -2480.203    22611662.820  
  22735594.711   119476275.61706        41.000       -2977.820    93098462.88305
        32.000       -2320.359    22735599.266  
  23872392.109   125450251.60916        41.000        2300.699    97753467.67214
        24.000        1792.734    23872395.523  
  21111573.750   110941996.12508        49.000        1990.895    86448410.47705
        33.000        1551.348    21111577.844  
  21961387.914   115407884.32008        48.000         430.934    89928227.35507
        43.000         335.797    21961390.266  
  21067520.164   110710575.07807        43.000         -59.066    86267976.98405
        35.000         -46.016    21067521.383  
  22395384.430   117688542.91407        46.000        -149.820    91705365.46104
        29.000        -116.746    22395385.180  
  22610792.359   118820528.89507        47.000        1496.879    92587443.87507
        47.000        1166.398    22610793.781  
  23450489.250   123233215.19507        44.000        3301.664    96025853.22304
        27.000        2572.727    23450496.477  
  19641590.297   104700771.93008        51.000        1981.227    81433908.20308
        51.000        1540.977    19641592.852  
  23383124.563   124952345.63316        37.000        4079.195                  
                                                
  20258681.609   108180143.34806        41.000       -2322.746    84140115.80106
        41.000       -1806.805    20258681.969  
  20017468.000   107042391.59408        51.000       -1966.078    83255148.68808
        49.000       -1529.172    20017468.180  
  23303097.203   124655822.38706        40.000       -3599.473                  
                                                
  20698319.156   110760829.55508        51.000        1322.754    86147344.83208
        49.000        1028.938    20698319.117  
 23  7 24 21  9 43.0000000  0 15G24G11G28G25G29G12G20G05G18R14R15R13            
                                R24R23R17                                       
  22612265.852   118828230.62508        48.000       -3183.328    92593461.16807
        42.000       -2480.516    22612268.219  
  22736161.484   119479252.22306        41.000       -2978.113    93100782.31305
        32.000       -2320.621    22736165.688  
  23871954.688   125447949.96916        41.000        2299.949    97751674.19514
        24.000        1792.145    23871957.930  
  21111194.750   110940004.08608        49.000        1990.516    86446858.23405
        33.000        1551.035    21111198.758  
  21961305.750   115407452.25008        48.000         430.574    89927890.66807
        43.000         335.539    21961308.117  
  21067531.313   110710633.13307        43.000         -59.887    86268022.22307
        45.000         -46.652    21067532.477  
  22395412.703   117688691.64507        45.000        -150.320    91705481.35504
        29.000        -117.129    22395413.484  
  22610507.297   118819030.88307        47.000        1496.520    92586276.59407
        47.000        1166.117    22610508.703  
  23449860.406   123229912.10907        44.000        3301.367    96023279.39804
        27.000        2572.477    23449867.836  
  19641218.531   104698789.58608        51.000        1980.582    81432366.38308
        51.000        1540.520    19641220.992  
  23382360.797   124948264.68816        38.000        4078.961    97181979.92215
        34.000        3172.316    23382363.828  
  20259116.359   108182465.32806        41.000       -2323.984    84141921.77306
        41.000       -1807.582    20259116.828  
  20017835.609   107044356.47308        51.000       -1966.492    83256676.92608
        49.000       -1529.539    20017835.750  
  23303770.023   124659420.31306        40.000       -3599.820                  
                                                
  20698072.023   110759505.58208        51.000        1322.078    86146315.08208
        49.000        1028.363    20698071.836  
 23  7 24 21  9 44.0000000  0 15G24G11G28G25G29G12G20G05G18R14R15R13            
                                R24R23R17                                       
  22612869.172   118831402.57408        48.000       -3183.480    92595932.82807
        42.000       -2480.629    22612871.797  
  22736725.969   119482219.27006        41.000       -2978.133    93103094.30505
        32.000       -2320.680    22736730.305  
  23871514.688   125445638.96116        41.000        2299.320    97749873.41414
        24.000        1791.668    23871518.219  
  21110813.875   110938002.43808        49.000        1990.324    86445298.50806
        41.000        1550.914    21110817.875  
  21961221.797   115407010.47708        48.000         430.379    89927546.43408
        49.000         335.352    21961224.063  
  21067540.586   110710681.68007        43.000         -59.949    86268060.05507
        45.000         -46.707    21067541.766  
  22395439.148   117688831.11707        45.000        -151.340    91705590.03905
        34.000        -117.945    22395440.039  
  22610220.461   118817523.42207        47.000        1496.117    92585101.95307
        47.000        1165.781    22610221.828  
  23449230.047   123226599.46507        43.000        3301.180    96020698.12504
        27.000        2572.348    23449237.453  
  19640844.922   104696797.90208        51.000        1979.887    81430817.29308
        51.000        1540.047    19640847.375  
  23381595.375   124944173.73416        38.000        4079.746    97178798.06615
        34.000        3172.289    23381598.586  
  20259549.461   108184777.95306        41.000       -2324.305    84143720.49606
        40.000       -1807.789    20259550.078  
  20018201.094   107046311.70308        51.000       -1966.922    83258197.66008
        49.000       -1529.773    20018201.484  
  23304440.891   124663008.10906        40.000       -3599.586                  
                                                
  20697822.813   110758172.19108        51.000        1321.496    86145278.00408
        49.000        1027.766    20697822.516  
 23  7 24 21  9 45.0000000  0 15G24G11G28G25G29G12G20G05G18R14R15R13            
                                R24R23R17                                       
  22613474.672   118834584.91008        48.000       -3183.418    92598412.57807
        45.000       -2480.613    22613477.344  
  22737292.688   119485196.82406        41.000       -2978.973    93105414.48005
        32.000       -2321.281    22737296.969  
  23871077.227   125443338.60916        41.000        2298.840    97748080.93813
        23.000        1791.285    23871080.828  
  21110434.938   110936011.20308        49.000        1989.902    86443746.89806
        41.000        1550.555    21110438.977  
  21961139.664   115406579.05108        48.000         430.020    89927210.26208
        49.000         335.070    21961141.969  
  21067551.203   110710740.83207        43.000         -60.520    86268106.15607
        45.000         -47.164    21067553.078  
  22395467.719   117688981.35907        45.000        -151.938    91705707.11705
        34.000        -118.418    22395468.641  
  22609935.461   118816026.51607        47.000        1495.633    92583935.53507
        47.000        1165.414    22609936.977  
  23448601.820   123223297.30507        44.000        3300.578    96018125.02305
        31.000        2571.836    23448609.000  
  19640473.258   104694817.19508        51.000        1979.230    81429276.74608
        51.000        1539.379    19640475.852  
  23380832.172   124940093.15616        37.000        4080.055    97175624.27715
        35.000        3173.250    23380835.156  
  20259984.406   108187101.66806        41.000       -2325.391    84145527.81606
        40.000       -1808.543    20259985.031  
  20018568.625   107048277.68808        51.000       -1967.422    83259726.75808
        49.000       -1530.133    20018569.281  
  23305113.391   124666606.16406        40.000       -3599.590                  
                                                
  20697575.602   110756849.81308        51.000        1320.891    86144249.49208
        49.000        1027.176    20697575.289  
 23  7 24 21  9 46.0000000  0 15G24G11G28G25G29G12G20G05G18R14R15R13            
                                R24R23R17                                       
  22614083.328   118837782.46508        48.000       -3183.613    92600904.18807
        45.000       -2480.734    22614085.781  
  22737862.258   119488189.67606        41.000       -2979.484    93107746.57005
        32.000       -2321.680    22737866.484  
  23870642.141   125441053.74216        40.000        2298.766    97746300.52313
        23.000        1791.258    23870645.703  
  21110058.852   110934035.22308        49.000        1989.672    86442207.18006
        41.000        1550.395    21110062.969  
  21961060.219   115406162.80508        48.000         429.801    89926885.92208
        49.000         334.895    21961062.758  
  21067565.453   110710815.38707        43.000         -60.965    86268164.25007
        45.000         -47.488    21067567.328  
  22395499.328   117689147.22307        45.000        -152.461    91705836.35905
        34.000        -118.797    22395500.219  
  22609653.680   118814545.03107        47.000        1495.188    92582781.14508
        48.000        1165.070    22609655.055  
  23447976.531   123220010.44907        43.000        3300.543    96015563.84805
        31.000        2571.828    23447983.500  
  19640104.789   104692852.38308        51.000        1978.398    81427748.56308
        51.000        1538.777    19640107.250  
  23380071.195   124936027.98816        38.000        4079.012    97172462.44515
        34.000        3173.258    23380074.328  
  20260422.375   108189441.31306        41.000       -2325.633    84147347.56306
        40.000       -1809.418    20260423.242  
  20018939.336   107050259.38708        51.000       -1967.980    83261268.08208
        49.000       -1530.598    20018939.867  
  23305788.633   124670219.42606        40.000       -3599.449                  
                                                
  20697331.516   110755543.33208        51.000        1320.344    86143233.33208
        49.000        1027.004    20697331.148  
 23  7 24 21  9 47.0000000  0 15G24G11G28G25G29G12G20G05G18R14R15R13            
                                R24R23R17                                       
  22614690.523   118840973.52708        48.000       -3183.961    92603390.72707
        45.000       -2480.996    22614693.008  
  22738430.633   119491176.14106        41.000       -2979.855    93110073.68405
        32.000       -2321.918    22738434.766  
  23870206.664   125438762.64816        40.000        2298.000    97744515.25813
        23.000        1790.648    23870209.906  
  21109681.586   110932052.78908        49.000        1989.434    86440662.42606
        41.000        1550.215    21109685.688  
  21960979.711   115405740.01208        48.000         429.703    89926556.46908
        49.000         334.848    21960982.344  
  21067578.852   110710883.63707        43.000         -61.242    86268217.43007
        45.000         -47.703    21067580.367  
  22395529.883   117689306.98407        45.000        -153.020    91705960.85205
        34.000        -119.234    22395530.602  
  22609370.586   118813057.24607        47.000        1494.820    92581621.82808
        48.000        1164.789    22609371.977  
  23447349.430   123216717.21107        43.000        3300.160    96012997.69105
        31.000        2571.551    23447356.773  
  19639735.273   104690881.43008        51.000        1977.816    81426215.59808
        51.000        1538.246    19639737.484  
  23379309.672   124931956.04316        38.000        4078.750    97169295.43415
        34.000        3172.297    23379312.430  
  20260859.859   108191774.87906        41.000       -2326.879    84149162.53506
        41.000       -1809.809    20260860.203  
  20019309.063   107052234.69908        51.000       -1968.316    83262804.43808
        49.000       -1530.824    20019309.445  
  23306463.602   124673825.77306        40.000       -3598.672                  
                                                
  20697086.500   110754230.60508        51.000        1319.621    86142212.32008
        49.000        1026.352    20697085.906  
 23  7 24 21  9 48.0000000  0 15G24G11G28G25G29G12G20G05G18R14R15R13            
                                R24R23R17                                       
  22615294.789   118844148.98007        47.000       -3184.027    92605865.10507
        45.000       -2481.059    22615297.266  
  22738995.844   119494147.09006        41.000       -2979.566    93112388.71505
        32.000       -2321.746    22739000.109  
  23869767.461   125436456.23016        40.000        2297.801    97742718.05113
        23.000        1790.441    23869771.078  
  21109301.383   110930054.79708        48.000        1989.352    86439105.54706
        41.000        1550.152    21109305.484  
  21960896.438   115405301.59408        48.000         429.938    89926214.83608
        49.000         334.996    21960898.953  
  21067588.977   110710936.48007        43.000         -61.559    86268258.60907
        45.000         -47.969    21067590.477  
  22395557.430   117689451.55107        45.000        -153.078    91706073.50405
        34.000        -119.285    22395558.109  
  22609084.578   118811554.03907        47.000        1494.652    92580450.50008
        48.000        1164.664    22609085.961  
  23446720.008   123213408.45707        43.000        3300.133    96010419.44505
        31.000        2571.574    23446727.148  
  19639362.680   104688895.12908        51.000        1977.410    81424670.69908
        51.000        1537.992    19639364.859  
  23378544.383   124927868.16016        37.000        4078.559    97166115.92215
        34.000        3173.379    23378546.797  
  20261294.000   108194093.07006        41.000       -2327.129    84150965.56606
        41.000       -1809.766    20261294.453  
  20019675.617   107054194.34408        51.000       -1968.414    83264328.60508
        49.000       -1530.883    20019675.938  
  23307134.594   124677415.98406        40.000       -3599.152                  
                                                
  20696838.453   110752902.39508        51.000        1319.352    86141179.27708
        49.000        1026.195    20696837.547  
 23  7 24 21  9 49.0000000  0 15G24G11G28G25G29G12G20G05G18R14R15R13            
                                R24R23R17                                       
  22615899.273   118847325.46907        47.000       -3184.258    92608340.28907
        45.000       -2481.230    22615901.734  
  22739561.109   119497119.18806        41.000       -2980.309    93114704.63705
        32.000       -2322.285    22739565.664  
  23869328.523   125434151.14506        41.000        2296.977    97740921.89113
        23.000        1789.836    23869332.477  
  21108921.289   110928057.87908        48.000        1989.121    86437549.51206
        41.000        1549.961    21108925.492  
  21960813.383   115404864.17208        48.000         429.527    89925873.99608
        49.000         334.672    21960815.703  
  21067599.320   110710990.54707        43.000         -61.977    86268300.74207
        45.000         -48.324    21067600.805  
  22395585.102   117689597.55907        45.000        -153.840    91706187.28105
        34.000        -119.883    22395585.906  
  22608798.789   118810052.09807        47.000        1494.004    92579280.15608
        48.000        1164.164    22608800.141  
  23446090.625   123210100.84407        43.000        3299.840    96007842.09405
        31.000        2571.301    23446097.695  
  19638990.148   104686910.36308        51.000        1976.637    81423126.99208
        51.000        1537.418    19638992.500  
  23377779.492   124923781.13716        37.000        4078.895    97162937.11705
        35.000        3173.820    23377782.477  
  20261728.133   108196412.81606        41.000       -2327.473    84152769.84406
        41.000       -1810.555    20261728.688  
  20020042.109   107056155.26208        51.000       -1968.984    83265853.75808
        49.000       -1531.383    20020042.734  
  23307805.586   124681006.93006        40.000       -3599.129                  
                                                
  20696590.352   110751575.67208        51.000        1318.645    86140147.39108
        49.000        1025.512    20696589.570  
 23  7 24 21  9 50.0000000  0 15G24G11G28G25G29G12G20G05G18R14R15R13            
                                R24R23R17                                       
  22616506.063   118850515.71907        47.000       -3184.629    92610826.19907
        45.000       -2481.539    22616508.852  
  22740129.523   119500105.11306        40.000       -2980.191    93117031.33205
        32.000       -2322.242    22740133.859  
  23868893.109   125431860.05906        40.000        2296.656    97739136.64113
        23.000        1789.605    23868896.633  
  21108544.031   110926074.76608        48.000        1988.992    86436004.23006
        41.000        1549.863    21108548.133  
  21960732.500   115404440.46508        48.000         429.492    89925543.84008
        49.000         334.676    21960735.078  
  21067612.203   110711058.56307        43.000         -62.262    86268353.74607
        45.000         -48.516    21067613.805  
  22395615.391   117689757.72707        44.000        -154.500    91706312.08605
        34.000        -120.395    22395616.422  
  22608515.883   118808564.09807        47.000        1493.566    92578120.68008
        48.000        1163.820    22608517.008  
  23445463.727   123206807.10207        43.000        3299.371    96005275.54705
        31.000        2570.914    23445470.867  
  19638620.469   104684940.01208        51.000        1976.063    81421594.49608
        51.000        1537.000    19638622.805  
  23377017.344   124919707.95716        37.000        4079.059    97159769.12105
        35.000        3173.402    23377020.875  
  20262165.688   108198747.09406        41.000       -2328.730    84154585.37106
        41.000       -1811.188    20262165.695  
  20020411.453   107058130.36308        51.000       -1969.148    83267389.96108
        49.000       -1531.715    20020412.133  
  23308479.094   124684611.56606        40.000       -3598.508                  
                                                
  20696345.070   110750263.38308        51.000        1318.023    86139126.71108
        49.000        1025.203    20696344.383  
 23  7 24 21  9 51.0000000  0 15G24G11G28G25G29G12G20G05G18R14R15R13            
                                R24R23R17                                       
  22617113.102   118853704.60507        47.000       -3184.695    92613311.04707
        45.000       -2481.602    22617115.727  
  22740697.781   119503089.78906        40.000       -2980.391    93119357.06305
        32.000       -2322.379    22740701.797  
  23868456.727   125429567.91006        40.000        2296.223    97737350.55503
        23.000        1789.266    23868460.477  
  21108166.547   110924090.33608        48.000        1988.457    86434457.92606
        41.000        1549.441    21108170.500  
  21960651.656   115404015.35908        48.000         429.281    89925212.59008
        49.000         334.508    21960654.219  
  21067624.836   110711125.41407        43.000         -62.637    86268405.84007
        45.000         -48.813    21067626.586  
  22395645.859   117689916.94907        44.000        -155.430    91706436.15205
        34.000        -121.109    22395646.727  
  22608232.578   118807074.91007        47.000        1493.340    92576960.27308
        48.000        1163.637    22608233.648  
  23444837.008   123203512.09007        43.000        3299.012    96002708.00805
        31.000        2570.652    23444843.820  
  19638250.789   104682968.72708        51.000        1975.344    81420061.28108
        51.000        1536.477    19638252.992  
  23376254.711   124915633.28906        37.000        4078.691    97156599.94105
        35.000        3172.785    23376257.727  
  20262602.625   108201080.46506        41.000       -2329.348    84156400.22706
        41.000       -1811.906    20262602.648  
  20020780.766   107060104.27708        51.000       -1969.703    83268925.22308
        49.000       -1531.898    20020781.258  
  23309152.539   124688214.53506        40.000       -3598.426                  
                                                
  20696100.008   110748950.12108        51.000        1317.395    86138105.28908
        48.000        1024.676    20696098.953  
 23  7 24 21  9 52.0000000  0 15G24G11G28G25G29G12G20G05G18R14R15R13            
                                R24R23R17                                       
  22617717.797   118856882.05107        47.000       -3184.922    92615786.98007
        45.000       -2481.762    22617720.398  
  22741263.578   119506063.14106        40.000       -2981.023    93121673.96105
        32.000       -2322.879    22741267.586  
  23868018.461   125427264.58606        40.000        2295.695    97735555.75803
        23.000        1788.805    23868022.281  
  21107786.695   110922094.51208        48.000        1988.352    86432902.73406
        41.000        1549.375    21107790.719  
  21960568.523   115403578.78508        48.000         429.242    89924872.40208
        49.000         334.469    21960571.141  
  21067635.352   110711181.02307        43.000         -63.242    86268449.17207
        45.000         -49.254    21067637.203  
  22395673.883   117690065.11707        44.000        -156.063    91706551.60505
        34.000        -121.617    22395674.961  
  22607947.125   118805574.49607        47.000        1492.914    92575791.12508
        48.000        1163.320    22607948.148  
  23444207.586   123200205.74607        43.000        3298.867    96000131.64805
        31.000        2570.520    23444214.586  
  19637878.938   104680986.31608        51.000        1974.727    81418519.40608
        51.000        1535.879    19637881.094  
  23375490.719   124911546.82806        38.000        4079.086    97153421.59005
        35.000        3173.320    23375492.852  
  20263037.477   108203402.70706        41.000       -2330.375    84158206.39806
        41.000       -1812.156    20263037.586  
  20021147.789   107062066.77008        51.000       -1970.129    83270451.60508
        49.000       -1532.266    20021148.313  
  23309823.750   124691805.56306        40.000       -3598.383                  
                                                
  20695852.516   110747625.62108        51.000        1316.852    86137075.12908
        49.000        1024.164    20695851.305  
 23  7 24 21  9 53.0000000  0 15G24G11G28G25G29G12G20G05G18R14R15R13            
                                R24R23R17                                       
  22618323.984   118860067.55507        47.000       -3185.223    92618269.19107
        45.000       -2481.996    22618326.617  
  22741830.227   119509044.62106        40.000       -2981.262    93123997.19905
        32.000       -2323.063    22741834.914  
  23867581.344   125424969.59406        40.000        2295.320    97733767.45303
        23.000        1788.535    23867585.453  
  21107408.406   110920106.78108        48.000        1988.020    86431353.86306
        41.000        1549.105    21107412.492  
  21960486.922   115403150.22708        48.000         428.996    89924538.46908
        49.000         334.273    21960489.570  
  21067647.469   110711244.86307        43.000         -63.730    86268498.91807
        45.000         -49.660    21067649.414  
  22395703.555   117690221.72707        44.000        -156.219    91706673.64805
        34.000        -121.727    22395704.750  
  22607663.016   118804082.30907        47.000        1492.492    92574628.38308
        48.000        1162.988    22607664.195  
  23443580.039   123196907.55907        43.000        3298.508    95997561.64105
        31.000        2570.270    23443586.953  
  19637508.617   104679012.54708        51.000        1973.871    81416984.25408
        51.000        1535.285    19637510.773  
  23374727.023   124907468.41006        37.000        4078.637    97150249.47705
        35.000        3172.930    23374729.844  
  20263473.648   108205733.59006        41.000       -2330.863    84160019.30506
        41.000       -1812.676    20263473.922  
  20021516.242   107064037.68808        51.000       -1970.730    83271984.53908
        49.000       -1532.594    20021516.727  
  23310496.367   124695404.51206        41.000       -3598.770                  
                                                
  20695606.320   110746309.74208        51.000        1316.082    86136051.67608
        49.000        1023.570    20695605.359  
 23  7 24 21  9 54.0000000  0 15G24G11G28G25G29G12G20G05G18R14R15R13            
                                R24R23R17                                       
  22618931.813   118863261.48807        47.000       -3185.363    92620757.97307
        45.000       -2482.102    22618934.453  
  22742399.430   119512034.63306        40.000       -2981.008    93126327.07805
        31.000       -2322.863    22742403.906  
  23867146.555   125422683.31306        41.000        2295.219    97731985.93403
        23.000        1788.477    23867150.273  
  21107031.781   110918127.52308        48.000        1988.195    86429811.58606
        41.000        1549.246    21107035.852  
  21960407.273   115402730.06608        48.000         428.930    89924211.07008
        49.000         334.230    21960409.609  
  21067661.539   110711317.35207        43.000         -64.125    86268555.41007
        45.000         -49.961    21067663.258  
  22395735.117   117690387.20707        44.000        -157.086    91706802.59805
        34.000        -122.430    22395736.281  
  22607380.875   118802598.75807        47.000        1492.301    92573472.37108
        48.000        1162.832    22607381.914  
  23442953.898   123193617.91807        43.000        3298.578    95994998.28505
        31.000        2570.348    23442960.930  
  19637140.133   104677047.80108        51.000        1973.527    81415456.11708
        51.000        1534.961    19637142.148  
  23373965.055   124903398.43806        37.000        4078.414    97147083.97305
        35.000        3172.129    23373967.859  
  20263911.586   108208073.56306        41.000       -2331.270    84161839.28906
        41.000       -1813.105    20263912.164  
  20021886.453   107066017.40208        51.000       -1970.844    83273524.32008
        49.000       -1532.895    20021886.883  
  23311171.172   124699011.72306        41.000       -3598.168                  
                                                
  20695362.047   110745002.86708        51.000        1315.688    86135035.21108
        48.000        1023.273    20695360.977  
 23  7 24 21  9 55.0000000  0 15G24G11G28G25G29G12G20G05G18R14R15R13            
                                R24R23R17                                       
  22619537.703   118866445.07007        47.000       -3185.203    92623238.68807
        45.000       -2481.977    22619540.320  
  22742966.719   119515014.44906        40.000       -2981.570    93128649.01605
        31.000       -2323.309    22742970.953  
  23866709.906   125420386.96906        40.000        2294.793    97730196.56603
        23.000        1788.180    23866713.398  
  21106653.203   110916137.96908        49.000        1987.984    86428261.28506
        41.000        1549.082    21106657.219  
  21960325.477   115402299.52708        48.000         428.910    89923875.59008
        49.000         334.215    21960327.711  
  21067673.281   110711379.67607        44.000         -64.055    86268603.97307
        45.000         -49.914    21067675.148  
  22395764.422   117690542.71907        44.000        -157.059    91706923.77005
        34.000        -122.344    22395765.914  
  22607096.656   118801105.05907        47.000        1491.992    92572308.44908
        48.000        1162.598    22607097.719  
  23442326.109   123190318.03107        43.000        3297.918    95992426.94905
        31.000        2569.809    23442332.953  
  19636769.758   104675073.02708        51.000        1972.801    81413920.18008
        51.000        1534.441    19636771.648  
  23373201.180   124899317.79306        37.000        4078.500    97143910.16405
        35.000        3172.180    23373204.133  
  20264347.984   108210403.53506        41.000       -2331.727    84163651.50006
        40.000       -1813.758    20264348.563  
  20022254.906   107067986.79308        51.000       -1971.188    83275056.07008
        49.000       -1533.219    20022255.250  
  23311844.188   124702608.13706        41.000       -3598.055                  
                                                
  20695116.086   110743685.84008        51.000        1315.051    86134010.85508
        49.000        1023.035    20695114.883  
 23  7 24 21  9 56.0000000  0 15G24G11G28G25G29G12G20G05G18R14R15R13            
                                R24R23R17                                       
  22620141.672   118869619.55507        47.000       -3185.637    92625712.30907
        45.000       -2482.316    22620144.461  
  22743531.703   119517985.19506        40.000       -2981.605    93130963.87905
        31.000       -2323.316    22743536.227  
  23866271.281   125418081.79306        40.000        2293.926    97728400.32403
        23.000        1787.480    23866274.773  
  21106272.797   110914139.34408        48.000        1987.566    86426703.91406
        41.000        1548.750    21106276.875  
  21960241.711   115401859.83608        48.000         428.504    89923532.97308
        49.000         333.898    21960244.070  
  21067683.242   110711433.07807        44.000         -64.563    86268645.58207
        45.000         -50.270    21067685.344  
  22395792.320   117690689.53907        44.000        -158.148    91707038.17605
        34.000        -123.242    22395793.852  
  22606810.648   118799602.43807        47.000        1491.270    92571137.57408
        48.000        1162.035    22606811.813  
  23441696.383   123187009.11707        43.000        3297.863    95989848.57805
        31.000        2569.750    23441703.234  
  19636397.656   104673089.46108        51.000        1972.109    81412377.41408
        51.000        1533.824    19636399.680  
  23372435.484   124895227.79706        37.000        4078.766    97140728.99605
        35.000        3173.277    23372438.844  
  20264782.758   108212724.76206        41.000       -2332.664    84165456.90206
        41.000       -1814.594    20264783.391  
  20022621.344   107069947.11308        51.000       -1971.770    83276580.76208
        49.000       -1533.703    20022621.961  
  23312514.547   124706194.97706        41.000       -3597.855                  
                                                
  20694868.281   110742359.92208        51.000        1314.402    86132979.59008
        49.000        1022.395    20694867.039  
 23  7 24 21  9 57.0000000  0 15G24G11G28G25G29G12G20G05G18R14R15R13            
                                R24R23R17                                       
  22620747.781   118872804.28907        47.000       -3185.723    92628193.92207
        45.000       -2482.387    22620750.570  
  22744098.969   119520966.33606        40.000       -2982.172    93133286.85205
        31.000       -2323.750    22744103.523  
  23865834.266   125415787.17206        40.000        2293.367    97726612.31303
        23.000        1787.078    23865838.383  
  21105894.578   110912151.03508        48.000        1987.203    86425154.58206
        41.000        1548.477    21105898.539  
  21960159.734   115401430.36708        48.000         428.637    89923198.32808
        49.000         334.023    21960162.344  
  21067695.633   110711496.94907        44.000         -65.055    86268695.35907
        45.000         -50.691    21067697.539  
  22395822.164   117690847.03107        43.000        -158.883    91707160.90605
        34.000        -123.809    22395823.859  
  22606526.602   118798110.26607        47.000        1490.906    92569974.85208
        48.000        1161.742    22606527.875  
  23441068.797   123183710.58607        43.000        3297.664    95987278.30505
        31.000        2569.586    23441075.508  
  19636027.594   104671116.79308        51.000        1971.301    81410843.10908
        51.000        1533.355    19636029.648  
  23371671.781   124891148.04706        37.000        4078.762    97137555.91005
        35.000        3172.504    23371675.586  
  20265219.352   108215056.95706        40.000       -2333.539    84167270.82006
        41.000       -1815.039    20265220.102  
  20022989.797   107071918.07008        51.000       -1972.113    83278113.73008
        49.000       -1533.910    20022990.492  
  23313186.500   124709791.97306        41.000       -3597.777                  
                                                
  20694622.297   110741044.89808        51.000        1313.758    86131956.80108
        49.000        1021.949    20694621.469  
 23  7 24 21  9 58.0000000  0 15G24G11G28G25G29G12G20G05G18R14R15R13            
                                R24R23R17                                       
  22621355.523   118875998.31307        47.000       -3185.980    92630682.77007
        45.000       -2482.578    22621358.453  
  22744667.938   119523956.86306        40.000       -2982.984    93135617.12905
        31.000       -2324.422    22744672.578  
  23865399.484   125413502.07806        40.000        2293.316    97724831.72703
        23.000        1786.977    23865403.406  
  21105517.945   110910172.03508        48.000        1987.246    86423612.50406
        41.000        1548.504    21105521.953  
  21960079.820   115401010.16008        48.000         428.324    89922870.89508
        49.000         333.742    21960082.383  
  21067709.633   110711570.29707        44.000         -65.285    86268752.51607
        45.000         -50.887    21067711.539  
  22395854.117   117691014.19507        43.000        -159.340    91707291.16405
        34.000        -124.113    22395855.695  
  22606244.641   118796627.59007        47.000        1490.770    92568819.52308
        49.000        1161.641    22606245.758  
  23440442.813   123180421.44107        43.000        3297.117    95984715.34005
        31.000        2569.184    23440449.547  
  19635659.438   104669154.04308        51.000        1970.719    81409316.53108
        51.000        1532.816    19635661.430  
  23370910.133   124887077.62506        37.000        4078.945    97134390.02305
        35.000        3171.914    23370913.781  
  20265658.070   108217399.06606        40.000       -2334.035    84169092.45706
        41.000       -1815.297    20265658.891  
  20023360.320   107073898.69108        51.000       -1972.527    83279654.21108
        49.000       -1534.160    20023360.867  
  23313860.578   124713398.16406        40.000       -3598.121                  
                                                
  20694378.383   110739739.74608        51.000        1313.020    86130941.68808
        49.000        1021.363    20694377.703  
 23  7 24 21  9 59.0000000  0 15G24G11G28G25G29G12G20G05G18R14R15R13            
                                R24R23R17                                       
  22621961.203   118879182.25007        47.000       -3186.086    92633163.75407
        45.000       -2482.660    22621964.406  
  22745235.273   119526937.39806        41.000       -2982.633    93137939.62905
        31.000       -2324.105    22745239.727  
  23864962.734   125411207.19106        40.000        2292.844    97723043.49203
        23.000        1786.590    23864966.734  
  21105139.359   110908183.02008        49.000        1986.813    86422062.62506
        41.000        1548.168    21105143.422  
  21959998.102   115400579.83608        48.000         428.090    89922535.57408
        49.000         333.578    21960000.516  
  21067721.734   110711633.77007        44.000         -65.820    86268801.96907
        46.000         -51.293    21067723.625  
  22395883.805   117691171.69107        43.000        -159.840    91707413.89105
        34.000        -124.512    22395885.703  
  22605960.523   118795135.05507        47.000        1490.285    92567656.50008
        49.000        1161.293    22605961.797  
  23439814.984   123177122.31607        43.000        3296.941    95982144.59805
        31.000        2569.027    23439821.695  
  19635289.477   104667181.53908        51.000        1969.984    81407782.35908
        51.000        1532.328    19635291.375  
  23370146.367   124882996.81606        37.000        4078.402    97131216.05905
        35.000        3171.574    23370149.961  
  20266094.734   108219731.43806        40.000       -2335.184    84170906.52306
        41.000       -1815.875    20266095.852  
  20023728.945   107075869.28908        51.000       -1972.977    83281186.89808
        49.000       -1534.398    20023729.359  
  23314533.141   124716993.77306        41.000       -3597.734                  
                                                
  20694132.797   110738424.71108        51.000        1312.434    86129918.88308
        49.000        1020.824    20694131.961  
 23  7 24 21 10  0.0000000  0 15G24G11G28G25G29G12G20G05G18R14R15R13            
                                R24R23R17                                       
  22622566.492   118882362.88307        47.000       -3186.324    92635642.16807
        45.000       -2482.863    22622569.734  
  22745802.211   119529914.71906        40.000       -2982.520    93140259.61705
        31.000       -2324.012    22745806.281  
  23864525.508   125408909.30506        40.000        2291.793    97721252.93003
        23.000        1785.813    23864529.336  
  21104760.320   110906190.73808        48.000        1986.598    86420510.19506
        41.000        1548.000    21104764.297  
  21959915.625   115400146.16808        48.000         427.988    89922197.64508
        49.000         333.492    21959917.984  
  21067733.133   110711694.12907        44.000         -66.281    86268849.00007
        46.000         -51.637    21067735.148  
  22395913.234   117691326.31607        43.000        -160.816    91707534.38305
        33.000        -125.340    22395915.133  
  22605675.969   118793639.39807        47.000        1489.695    92566491.05908
        49.000        1160.797    22605677.219  
  23439186.555   123173820.00807        43.000        3296.781    95979571.37505
        31.000        2568.926    23439193.211  
  19634918.867   104665206.12908        51.000        1969.500    81406245.94108
        51.000        1531.684    19634920.883  
  23369382.453   124878912.49606        38.000        4079.031    97128039.35905
        35.000        3172.941    23369385.602  
  20266530.680   108222060.93406        40.000       -2335.465    84172718.36706
        41.000       -1816.699    20266531.992  
  20024096.766   107077836.74208        51.000       -1973.371    83282717.14808
        49.000       -1534.824    20024097.234  
  23315204.305   124720585.71106        41.000       -3597.777                  
                                                
  20693886.258   110737106.69508        51.000        1311.879    86128893.75808
        49.000        1020.445    20693885.695  
 23  7 24 21 10  1.0000000  0 15G24G11G28G25G29G12G20G05G18R14R15R13            
                                R24R23R17                                       
  22623174.102   118885555.41407        47.000       -3186.238    92638129.85907
        45.000       -2482.770    22623177.352  
  22746370.742   119532904.06306        40.000       -2983.063    93142588.97305
        31.000       -2324.477    22746375.141  
  23864090.563   125406623.58206        41.000        2291.699    97719471.84003
        23.000        1785.762    23864094.258  
  21104383.633   110904210.39808        48.000        1986.719    86418967.07406
        41.000        1548.098    21104387.461  
  21959835.180   115399724.36708        48.000         428.309    89921868.97708
        49.000         333.746    21959837.703  
  21067747.141   110711766.58207        44.000         -66.180    86268905.45707
        46.000         -51.582    21067748.969  
  22395944.961   117691493.21507        43.000        -161.035    91707664.43805
        33.000        -125.480    22395946.906  
  22605393.859   118792155.82807        47.000        1489.910    92565335.03508
        49.000        1160.973    22605394.930  
  23438560.305   123170529.68407        43.000        3296.844    95977007.48805
        31.000        2568.980    23438567.031  
  19634550.617   104663243.25408        51.000        1969.063    81404719.25008
        51.000        1531.500    19634552.719  
  23368620.688   124874840.25006        37.000        4078.309    97124872.05105
        34.000        3171.742    23368623.117  
  20266969.219   108224403.02006        40.000       -2336.020    84174539.99206
        41.000       -1816.992    20266970.477  
  20024466.945   107079816.48808        51.000       -1973.391    83284256.94508
        49.000       -1534.813    20024467.539  
  23315878.195   124724189.48006        41.000       -3597.488                  
                                                
  20693642.234   110735801.23008        51.000        1311.609    86127878.40608
        49.000        1020.086    20693641.734  
 23  7 24 21 10  2.0000000  0 15G24G11G28G25G29G12G20G05G18R14R15R13            
                                R24R23R17                                       
  22623781.156   118888746.44507        47.000       -3186.289    92640616.37507
        45.000       -2482.828    22623784.672  
  22746939.609   119535891.98806        40.000       -2983.660    93144917.22305
        31.000       -2324.945    22746943.711  
  23863655.336   125404336.62906        41.000        2291.320    97717689.79303
        23.000        1785.434    23863659.172  
  21104006.461   110902228.60508        49.000        1986.406    86417422.81606
        41.000        1547.844    21104010.336  
  21959754.711   115399301.02708        48.000         427.746    89921539.09808
        49.000         333.305    21959757.164  
  21067760.750   110711837.70707        44.000         -66.598    86268960.87907
        46.000         -51.902    21067762.531  
  22395976.664   117691659.01607        43.000        -161.496    91707793.63305
        33.000        -125.844    22395978.438  
  22605111.328   118790670.94907        47.000        1489.266    92564177.98808
        49.000        1160.469    22605112.438  
  23437934.266   123167237.98407        43.000        3296.328    95974442.53105
        31.000        2568.555    23437940.602  
  19634182.383   104661279.30508        51.000        1968.258    81403191.73808
        51.000        1530.777    19634184.336  
  23367857.906   124870766.28106        37.000        4078.168    97121703.39105
        35.000        3172.984    23367860.750  
  20267407.805   108226744.09806        40.000       -2336.637    84176360.81606
        41.000       -1817.391    20267409.047  
  20024837.094   107081794.90208        51.000       -1973.914    83285795.71908
        49.000       -1535.328    20024837.516  
  23316551.719   124727791.43406        41.000       -3597.027                  
                                                
  20693398.133   110734494.68408        51.000        1310.820    86126862.19508
        49.000        1019.695    20693397.633  
 23  7 24 21 10  3.0000000  0 15G24G11G28G25G29G12G20G05G18R14R15R13            
                                R24R23R17                                       
  22624386.305   118891925.82807        46.000       -3186.918    92643093.81307
        45.000       -2483.301    22624389.781  
  22747505.891   119538868.36706        41.000       -2983.883    93147236.48805
        31.000       -2325.105    22747510.070  
  23863218.695   125402038.28506        41.000        2291.043    97715898.87503
        23.000        1785.227    23863221.867  
  21103627.117   110900235.18808        49.000        1986.148    86415869.50806
        41.000        1547.645    21103630.992  
  21959671.625   115398865.98808        48.000         427.668    89921200.10908
        49.000         333.242    21959674.406  
  21067772.148   110711897.39107        44.000         -67.305    86269007.38307
        46.000         -52.441    21067773.922  
  22396006.039   117691813.55507        43.000        -162.098    91707914.05505
        33.000        -126.313    22396007.844  
  22604826.516   118789174.60907        47.000        1488.938    92563012.00808
        49.000        1160.199    22604827.750  
  23437305.430   123163934.72307        43.000        3295.555    95971868.56605
        31.000        2567.969    23437311.938  
  19633811.734   104659303.98808        51.000        1967.488    81401655.38308
        51.000        1530.270    19633813.797  
  23367092.984   124866680.30506        36.000        4078.277    97118525.44905
        34.000        3171.742    23367095.172  
  20267844.047   108229073.82806        40.000       -2337.582    84178172.83206
        41.000       -1817.922    20267845.516  
  20025204.867   107083761.70308        51.000       -1974.504    83287325.44108
        49.000       -1535.734    20025205.273  
  23317222.758   124731381.21906        41.000       -3596.938                  
                                                
  20693151.906   110733176.68408        51.000        1310.184    86125837.09008
        49.000        1018.875    20693151.375  
 23  7 24 21 10  4.0000000  0 15G24G11G28G25G29G12G20G05G18R14R15R13            
                                R24R23R17                                       
  22624992.797   118895113.05507        46.000       -3186.953    92645577.37107
        45.000       -2483.313    22624996.375  
  22748073.867   119541852.70306        40.000       -2984.090    93149561.94105
        31.000       -2325.262    22748077.922  
  23862782.883   125399748.10906        41.000        2290.332    97714114.32003
        23.000        1784.637    23862786.188  
  21103249.500   110898249.69508        49.000        1985.828    86414322.37106
        41.000        1547.398    21103253.195  
  21959590.438   115398438.76608        48.000         427.598    89920867.21108
        49.000         333.191    21959593.086  
  21067784.992   110711965.12507        44.000         -67.617    86269060.16007
        46.000         -52.707    21067786.828  
  22396037.016   117691976.37507        43.000        -162.543    91708040.93405
        33.000        -126.660    22396038.859  
  22604543.266   118787686.33207        47.000        1488.633    92561852.31308
        49.000        1159.973    22604544.563  
  23436678.359   123160639.40607        43.000        3295.742    95969300.78905
        31.000        2568.102    23436684.789  
  19633442.813   104657337.14808        51.000        1967.016    81400125.61708
        51.000        1529.875    19633444.820  
  23366330.047   124862602.19906        37.000        4078.391    97115353.55505
        35.000        3171.789    23366332.383  
  20268281.555   108231412.04706        40.000       -2337.945    84179991.45306
        41.000       -1818.500    20268283.414  
  20025574.094   107085736.73408        51.000       -1974.852    83288861.57808
        49.000       -1535.953    20025574.570  
  23317894.742   124734978.75806        41.000       -3597.313                  
                                                
  20692906.953   110731867.06308        51.000        1309.832    86124818.50408
        49.000        1018.625    20692906.555  
 23  7 24 21 10  5.0000000  0 15G24G11G28G25G29G12G20G05G18R14R15R13            
                                R24R23R17                                       
  22625600.977   118898308.85207        46.000       -3187.219    92648067.59807
        45.000       -2483.566    22625604.609  
  22748643.242   119544845.68406        41.000       -2984.211    93151894.12905
        31.000       -2325.301    22748647.430  
  23862348.344   125397466.74606        41.000        2289.617    97712336.63703
        23.000        1784.125    23862352.078  
  21102873.227   110896272.78908        49.000        1985.453    86412781.92606
        41.000        1547.105    21102877.008  
  21959510.945   115398020.07408        48.000         427.590    89920540.95708
        49.000         333.168    21959513.430  
  21067799.648   110712041.59807        44.000         -67.813    86269119.75407
        46.000         -52.844    21067801.398  
  22396069.438   117692148.15607        43.000        -163.266    91708174.78905
        33.000        -127.199    22396071.547  
  22604261.680   118786206.80907        47.000        1488.215    92560699.44108
        49.000        1159.645    22604263.047  
  23436052.734   123157352.78507        43.000        3295.102    95966739.79305
        31.000        2567.613    23436059.289  
  19633075.555   104655379.47308        51.000        1966.316    81398602.98808
        51.000        1529.387    19633077.555  
  23365568.813   124858532.62906        38.000        4078.746    97112188.35905
        35.000        3172.465    23365570.469  
  20268721.133   108233759.46906        40.000       -2339.188    84181817.20706
        41.000       -1818.883    20268723.023  
  20025945.219   107087720.66408        51.000       -1975.164    83290404.64508
        49.000       -1536.309    20025945.523  
  23318569.078   124738584.66806        41.000       -3596.680                  
                                                
  20692663.906   110730566.53508        51.000        1309.156    86123806.98408
        49.000        1018.195    20692663.602  
 23  7 24 21 10  6.0000000  0 15G24G11G28G25G29G12G20G05G18R14R15R13            
                                R24R23R17                                       
  22626207.086   118901494.39807        46.000       -3187.461    92650549.83607
        45.000       -2483.738    22626210.883  
  22749211.023   119547828.51606        41.000       -2984.465    93154218.41005
        31.000       -2325.496    22749215.031  
  23861912.484   125395175.42606        41.000        2289.613    97710551.18803
        23.000        1784.086    23861916.094  
  21102495.055   110894285.69508        49.000        1985.352    86411233.53906
        41.000        1547.035    21102498.859  
  21959429.203   115397591.10208        48.000         427.332    89920206.69108
        49.000         332.992    21959431.844  
  21067812.234   110712108.05107        44.000         -68.438    86269171.53507
        46.000         -53.328    21067814.047  
  22396100.445   117692310.09807        43.000        -163.793    91708300.96905
        33.000        -127.625    22396102.367  
  22603978.445   118784717.23407        47.000        1487.555    92559538.73008
        49.000        1159.137    22603979.656  
  23435425.414   123154056.01207        43.000        3294.707    95964170.88305
        31.000        2567.301    23435431.852  
  19632706.383   104653411.88308        51.000        1965.531    81397072.64108
        51.000        1528.750    19632708.469  
  23364805.164   124854452.51606        37.000        4078.297    97109014.94505
        35.000        3172.098    23364807.500  
  20269159.180   108236096.93406        40.000       -2339.074    84183635.24606
        41.000       -1819.664    20269160.625  
  20026314.469   107089694.37108        51.000       -1975.629    83291939.75008
        49.000       -1536.516    20026314.570  
  23319241.523   124742179.88706        41.000       -3596.836                  
                                                
  20692419.125   110729256.02308        51.000        1308.523    86122787.69908
        49.000        1017.578    20692418.734  
 23  7 24 21 10  7.0000000  0 15G24G11G28G25G29G12G20G05G18R14R15R13            
                                R24R23R17                                       
  22626811.500   118904670.92607        46.000       -3187.457    92653025.05507
        45.000       -2483.734    22626815.430  
  22749776.617   119550802.44106        41.000       -2985.266    93156535.76205
        31.000       -2326.191    22749780.977  
  23861474.914   125392875.35906        41.000        2289.188    97708758.92603
        23.000        1783.781    23861478.500  
  21102115.031   110892289.63308        49.000        1984.938    86409678.16406
        41.000        1546.707    21102119.055  
  21959345.906   115397153.07408        48.000         427.195    89919865.37508
        49.000         332.879    21959348.484  
  21067823.156   110712165.66807        44.000         -69.012    86269216.43407
        46.000         -53.789    21067825.016  
  22396129.484   117692463.42607        43.000        -164.383    91708420.44505
