     2.10           OBSERVATION DATA    M (MIXED)           RINEX VERSION / TYPE
ComNav                                                      PGM / RUN BY / DATE 
comnav12                                                    MARKER NAME         
                                                            OBSERVER / AGENCY   
N31L04806           ComNav              55.0                REC # / TYPE / VERS 
                    Unknown                                 ANT # / TYPE        
  3752842.7775 -4538356.2935 -2442730.7161                  APPROX POSITION XYZ 
        1.8000        0.0000        0.0000                  ANTENNA: DELTA H/E/N
     1     1                                                WAVELENGTH FACT L1/2
     8    C1    L1    S1    D1    L2    S2    D2    P2      # / TYPES OF OBSERV 
     1.000                                                  INTERVAL
  2023     7    24    20    57   15.000000      GPS         TIME OF FIRST OBS   
                                                            END OF HEADER       
 23  7 24 20 57 15.0000000  0 15G24G11G28G25G29G12G20G05G18R14R13R12            
                                R24R23R17                                       
  22169960.492   116503981.83606        37.000       -3020.133    90782303.16004
        24.000       -2353.332    22169966.086  
  22328166.336   117335220.02307        42.000       -2745.117    91430107.07005
        31.000       -2139.078    22328168.906  
  24222307.148   127289087.30107        43.000        2615.266    99186297.55504
        24.000        2037.871    24222307.250  
  21404911.039   112483486.57407        46.000        2128.469    87649570.91006
        37.000        1658.543    21404914.344  
  22030509.273   115771107.53107        47.000         545.629    90211260.87506
        38.000         425.156    22030511.867  
  21077822.992   110764713.77708        50.000         199.039    86310162.58208
        51.000         155.090    21077823.883  
  22404269.188   117735232.99607        43.000         271.883    91741746.06605
        30.000         211.863    22404271.719  
  22841860.219   120034792.90607        44.000        1745.430    93533622.35207
        43.000        1360.070    22841862.539  
  23933435.055   125771078.23006        38.000        3485.230    98003446.03103
        20.000        2715.758    23933443.898  
  19951080.156   106350518.32008        51.000        2422.969    82717044.36707
        47.000        1884.320    19951082.844  
  19969882.086   106637977.39106        40.000       -1800.629    82940653.81307
        43.000       -1400.848    19969884.445  
  23607104.898   126104906.18407        44.000       -3804.172    98081608.25406
        40.000       -2958.711    23607105.797  
  19764842.305   105691477.75008        48.000       -1638.727    82204437.44107
        44.000       -1274.832    19764840.609  
  22795676.617   121941489.87907        45.000       -3658.426                  
                                                
  20913834.352   111914090.70708        51.000        1765.691    87044324.66408
        49.000        1373.262    20913833.555  
 23  7 24 20 57 16.0000000  0 14G24G11G28G25G29G12G20G05G18R14R13R24            
                                R23R17                                          
  22170536.922   116507012.36306        37.000       -3021.008    90784664.59804
        24.000       -2354.023    22170542.664  
  22328690.547   117337974.40607        43.000       -2745.598    91432253.34405
        31.000       -2139.414    22328693.063  
  24221810.953   127286481.66807        43.000        2614.898    99184267.19504
        24.000        2037.621    24221811.414  
  21404507.547   112481367.43007        46.000        2128.598    87647919.62906
        37.000        1658.660    21404511.102  
  22030407.188   115770571.38307        46.000         545.266    90210843.10206
        38.000         424.879    22030409.797  
  21077786.914   110764524.44108        50.000         198.523    86310015.05108
        51.000         154.703    21077787.859  
  22404219.117   117734971.03907        43.000         271.211    91741541.94505
        30.000         211.332    22404221.828  
  22841529.789   120033057.07807        44.000        1745.039    93532269.75807
        43.000        1359.770    22841532.203  
  23932773.234   125767602.60206        38.000        3484.863    98000737.75403
        20.000        2715.453    23932782.594  
  19950627.484   106348105.18408        51.000        2421.969    82715167.48007
        47.000        1883.801    19950630.234  
  19970220.961   106639788.27306        40.000       -1802.129    82942062.25407
        42.000       -1401.191    19970223.578  
  19765150.539   105693126.31607        47.000       -1639.727    82205719.65607
        44.000       -1275.191    19765148.805  
  22796362.445   121945157.98407        45.000       -3658.957                  
                                                
  20913506.219   111912334.95308        51.000        1764.574    87042959.07408
        49.000        1372.895    20913505.359  
 23  7 24 20 57 17.0000000  0 14G24G11G28G25G29G12G20G05G18R14R13R24            
                                R23R17                                          
  22171113.266   116510042.75006        36.000       -3021.266    90787025.93004
        24.000       -2354.246    22171119.367  
  22329214.617   117340728.76207        42.000       -2745.375    91434399.58605
        31.000       -2139.219    22329217.250  
  24221315.188   127283876.03107        43.000        2614.582    99182236.84004
        24.000        2037.336    24221315.641  
  21404104.234   112479248.05907        46.000        2128.504    87646268.16806
        37.000        1658.590    21404107.813  
  22030305.063   115770035.00007        46.000         545.410    90210425.14106
        38.000         424.992    22030307.711  
  21077750.898   110764335.03508        50.000         198.402    86309867.45308
        51.000         154.609    21077751.852  
  22404169.188   117734709.24207        43.000         270.359    91741337.94505
        30.000         210.652    22404172.000  
  22841199.219   120031321.12507        44.000        1744.828    93530917.07007
        43.000        1359.605    22841201.852  
  23932111.336   125764126.81306        38.000        3484.316    97998029.35503
        20.000        2715.031    23932121.094  
  19950175.016   106345692.20708        51.000        2421.891    82713290.71507
        47.000        1883.715    19950177.398  
  19970560.375   106641599.49206        40.000       -1802.840    82943470.96907
        43.000       -1401.609    19970562.711  
  19765459.234   105694774.97708        48.000       -1639.594    82207001.94107
        44.000       -1275.152    19765456.859  
  22797048.328   121948825.66007        45.000       -3658.406                  
                                                
  20913178.586   111910579.43408        51.000        1764.648    87041593.67608
        49.000        1372.492    20913177.422  
 23  7 24 20 57 18.0000000  0 14G24G11G28G25G29G12G20G05G18R14R13R24            
                                R23R17                                          
  22171687.531   116513059.90206        36.000       -3022.055    90789376.96104
        24.000       -2354.852    22171693.625  
  22329736.266   117343469.93407        43.000       -2745.934    91436535.56305
        32.000       -2139.715    22329738.898  
  24220816.883   127281257.27707        43.000        2613.941    99180196.25004
        24.000        2036.836    24220817.367  
  21403698.563   112477115.32007        46.000        2128.086    87644606.28906
        37.000        1658.246    21403701.961  
  22030200.320   115769485.29707        46.000         544.879    90209996.80106
        38.000         424.578    22030203.094  
  21077712.219   110764132.43408        50.000         197.813    86309709.58208
        51.000         154.133    21077713.328  
  22404116.992   117734434.44507        43.000         269.801    91741123.81305
        30.000         210.238    22404119.719  
  22840866.383   120029571.94107        44.000        1744.316    93529554.07007
        43.000        1359.203    22840868.953  
  23931447.523   125760637.70306        38.000        3484.758    97995310.58603
        20.000        2715.438    23931456.680  
  19949719.969   106343266.03508        51.000        2421.215    82711403.69107
        47.000        1883.172    19949722.234  
  19970897.313   106643397.65606        40.000       -1803.113    82944869.56607
        43.000       -1402.598    19970899.469  
  19765765.063   105696410.39508        48.000       -1640.414    82208273.92607
        44.000       -1275.809    19765762.492  
  22797731.430   121952479.54307        45.000       -3658.504                  
                                                
  20912848.188   111908810.75408        51.000        1763.668    87040218.03908
        49.000        1371.566    20912846.789  
 23  7 24 20 57 19.0000000  0 14G24G11G28G25G29G12G20G05G18R14R13R24            
                                R23R17                                          
  22172261.984   116516078.88706        36.000       -3022.066    90791729.41003
        23.000       -2354.816    22172268.117  
  22330258.289   117346213.09007        43.000       -2746.359    91438673.08205
        32.000       -2140.016    22330260.930  
  24220319.109   127278640.53107        43.000        2613.625    99178157.23004
        24.000        2036.566    24220319.367  
  21403292.922   112474984.37507        46.000        2128.016    87642945.81306
        37.000        1658.180    21403296.445  
  22030095.797   115768937.35907        46.000         545.242    90209569.84006
        38.000         424.855    22030098.789  
  21077674.273   110763931.76208        50.000         197.934    86309553.21508
        51.000         154.230    21077675.141  
  22404065.273   117734161.83607        43.000         269.660    91740911.39805
        30.000         210.117    22404067.898  
  22840534.016   120027824.69507        44.000        1744.383    93528192.58207
        43.000        1359.281    22840536.453  
  23930784.398   125757150.44106        38.000        3483.883    97992593.23003
        20.000        2714.656    23930793.094  
  19949265.219   106340842.02308        51.000        2420.938    82709518.35507
        47.000        1882.820    19949267.383  
  19971234.711   106645198.17206        41.000       -1802.957    82946269.99207
        43.000       -1402.906    19971236.602  
  19766070.977   105698047.91007        47.000       -1640.621    82209547.55507
        44.000       -1276.016    19766068.633  
  22798414.414   121956135.00007        45.000       -3658.047                  
                                                
  20912517.836   111907044.32808        51.000        1763.262    87038844.15608
        49.000        1371.332    20912516.531  
 23  7 24 20 57 20.0000000  0 14G24G11G28G25G29G12G20G05G18R14R13R24            
                                R23R17                                          
  22172838.563   116519110.00406        36.000       -3022.215    90794091.31603
        23.000       -2354.965    22172844.977  
  22330782.609   117348968.44907        43.000       -2746.625    91440820.11705
        32.000       -2140.227    22330785.242  
  24219823.477   127276036.05107        43.000        2613.109    99176127.77704
        25.000        2036.199    24219823.828  
  21402889.766   112472865.43807        46.000        2127.836    87641294.69906
        37.000        1658.055    21402893.250  
  22029994.047   115768401.48407        47.000         544.547    90209152.27706
        38.000         424.336    22029996.789  
  21077638.469   110763743.29708        50.000         197.145    86309406.35908
        51.000         153.629    21077639.281  
  22404015.531   117733901.65607        43.000         269.020    91740708.66404
        29.000         209.629    22404018.359  
  22840203.797   120026089.61707        45.000        1743.816    93526840.57807
        43.000        1358.809    22840206.258  
  23930122.453   125753675.24606        38.000        3484.207    97989885.31303
        20.000        2714.930    23930131.977  
  19948812.789   106338430.60908        51.000        2420.246    82707642.80907
        47.000        1882.375    19948814.844  
  19971574.492   106647011.52706        41.000       -1804.695    82947680.35207
        42.000       -1403.637    19971576.086  
  19766379.016   105699698.02007        47.000       -1641.395    82210830.96907
        43.000       -1276.508    19766376.883  
  22799099.977   121959802.54707        45.000       -3658.695                  
                                                
  20912189.805   111905290.60508        51.000        1762.566    87037480.14508
        48.000        1370.797    20912188.672  
 23  7 24 20 57 21.0000000  0 14G24G11G28G25G29G12G20G05G18R14R13R24            
                                R23R17                                          
  22173413.797   116522133.71906        36.000       -3022.082    90796447.45303
        23.000       -2354.816    22173420.469  
  22331306.109   117351716.51207        44.000       -2746.852    91442961.45705
        32.000       -2140.375    22331308.195  
  24219326.406   127273424.28907        43.000        2612.773    99174092.62904
        25.000        2035.938    24219326.984  
  21402484.766   112470738.98407        46.000        2127.672    87639637.72306
        37.000        1657.922    21402488.625  
  22029890.602   115767858.09407        47.000         544.512    90208728.85906
        38.000         424.301    22029893.391  
  21077601.086   110763547.47708        50.000         196.973    86309253.77308
        51.000         153.488    21077602.047  
  22403964.680   117733634.35507        43.000         268.434    91740500.37504
        29.000         209.180    22403967.523  
  22839872.383   120024347.14507        45.000        1743.512    93525482.80507
        43.000        1358.598    22839874.656  
  23929460.102   125750192.60206        38.000        3483.723    97987171.55903
        20.000        2714.598    23929469.320  
  19948359.320   106336011.98008        51.000        2419.707    82705761.65607
        47.000        1881.977    19948361.188  
  19971912.961   106648817.77006        41.000       -1805.406    82949085.21507
        43.000       -1404.039    19971914.430  
  19766686.328   105701340.81307        47.000       -1641.750    82212108.69507
        43.000       -1276.977    19766684.133  
  22799784.469   121963462.21107        45.000       -3658.348                  
                                                
  20911860.969   111903529.65208        51.000        1761.941    87036110.51608
        48.000        1370.496    20911859.688  
 23  7 24 20 57 22.0000000  0 14G24G11G28G25G29G12G20G05G18R14R13R24            
                                R23R17                                          
  22173985.930   116525143.58606        36.000       -3023.008    90798792.79703
        23.000       -2355.543    22173993.359  
  22331826.344   117354450.76607        44.000       -2746.891    91445092.04705
        32.000       -2140.438    22331828.547  
  24218826.875   127270798.78507        43.000        2612.594    99172046.78904
        25.000        2035.762    24218827.383  
  21402077.672   112468598.54707        46.000        2127.652    87637969.84406
        37.000        1657.910    21402081.320  
  22029784.453   115767300.72707        46.000         544.715    90208294.54706
        38.000         424.453    22029787.328  
  21077561.109   110763337.83208        50.000         196.844    86309090.41008
        51.000         153.371    21077562.180  
  22403911.336   117733353.44107        43.000         268.059    91740281.48404
        29.000         208.879    22403914.078  
  22839538.188   120022590.82407        44.000        1743.520    93524114.24207
        43.000        1358.594    22839540.414  
  23928795.023   125746696.03506        38.000        3483.355    97984446.95703
        20.000        2714.297    23928804.016  
  19947903.156   106333579.52008        51.000        2419.984    82703869.76607
        47.000        1881.629    19947904.977  
  19972248.289   106650610.30506        41.000       -1805.000    82950479.43007
        43.000       -1404.418    19972250.195  
  19766990.883   105702969.65207        47.000       -1641.281    82213375.59807
        43.000       -1276.934    19766988.430  
  22800465.945   121967107.38307        45.000       -3657.492                  
                                                
  20911529.172   111901754.82408        51.000        1762.414    87034730.11708
        49.000        1370.188    20911527.883  
 23  7 24 20 57 23.0000000  0 14G24G11G28G25G29G12G20G05G18R14R13R24            
                                R23R17                                          
  22174560.906   116528160.09406        36.000       -3023.785    90801143.33204
        24.000       -2356.145    22174567.445  
  22332348.133   117357191.80507        44.000       -2747.785    91447227.92605
        32.000       -2141.133    22332350.164  
  24218328.492   127268180.07807        43.000        2612.176    99170006.23804
        25.000        2035.453    24218329.031  
  21401671.352   112466464.69507        46.000        2127.074    87636307.10906
        37.000        1657.457    21401675.273  
  22029679.656   115766749.95707        47.000         544.254    90207865.37906
        38.000         424.086    22029682.492  
  21077522.422   110763134.93808        50.000         196.262    86308932.31608
        51.000         152.922    21077523.586  
  22403859.000   117733079.52707        43.000         267.180    91740068.04304
        29.000         208.164    22403861.977  
  22839205.352   120020841.24207        45.000        1743.023    93522750.93807
        43.000        1358.176    22839207.461  
  23928131.570   125743206.09006        38.000        3483.617    97981727.53503
        20.000        2714.504    23928139.891  
  19947447.930   106331154.14508        51.000        2418.504    82701983.35207
        47.000        1880.977    19947449.844  
  19972585.266   106652410.12506        41.000       -1806.957    82951879.27307
        43.000       -1405.121    19972587.148  
  19767296.211   105704605.57407        46.000       -1642.676    82214647.96907
        43.000       -1277.668    19767294.195  
  22801147.711   121970759.10507        44.000       -3658.266                  
                                                
  20911198.180   111899987.18008        51.000        1760.539    87033355.27308
        49.000        1369.609    20911197.563  
 23  7 24 20 57 24.0000000  0 14G24G11G28G25G29G12G20G05G18R14R13R24            
                                R23R17                                          
  22175137.727   116531192.80106        36.000       -3023.039    90803506.48004
        24.000       -2355.594    22175144.734  
  22332872.641   117359949.13707        44.000       -2747.805    91449376.50005
        32.000       -2141.160    22332874.891  
  24217833.063   127265577.74607        43.000        2611.859    99167978.46104
        25.000        2035.184    24217833.797  
  21401268.445   112464346.94907        47.000        2127.305    87634656.92206
        37.000        1657.648    21401272.273  
  22029578.227   115766215.32807        47.000         544.133    90207448.79706
        38.000         424.000    22029580.719  
  21077487.016   110762948.31608        50.000         196.313    86308786.90208
        51.000         152.977    21077488.086  
  22403810.063   117732822.13707        43.000         266.996    91739867.48404
        29.000         208.035    22403813.000  
  22838875.305   120019107.90207        45.000        1742.855    93521400.28907
        43.000        1358.066    22838877.602  
  23927470.570   125739732.35906        38.000        3482.941    97979020.73403
        20.000        2714.004    23927478.930  
  19946995.891   106328745.47308        51.000        2418.016    82700109.93007
        47.000        1880.836    19946997.969  
  19972925.305   106654226.89106        41.000       -1807.320    82953292.32007
        42.000       -1405.711    19972927.391  
  19767605.086   105706258.21907        46.000       -1643.441    82215933.34807
        43.000       -1277.656    19767603.008  
  22801833.188   121974427.04707        45.000       -3658.477                  
                                                
  20910870.664   111898236.40208        51.000        1759.949    87031993.54308
        49.000        1369.262    20910870.422  
 23  7 24 20 57 25.0000000  0 14G24G11G28G25G29G12G20G05G18R14R13R24            
                                R23R17                                          
  22175714.422   116534225.28906        37.000       -3023.551    90805869.44104
        24.000       -2355.973    22175722.008  
  22333397.867   117362706.30907        44.000       -2748.488    91451524.94505
        32.000       -2141.691    22333399.578  
  24217337.555   127262975.26607        43.000        2611.137    99165950.55504
        25.000        2034.637    24217338.617  
  21400865.570   112462228.83207        47.000        2127.242    87633006.43806
        37.000        1657.598    21400869.227  
  22029476.102   115765680.34007        47.000         543.805    90207031.91806
        38.000         423.770    22029478.914  
  21077451.469   110762761.49608        50.000         195.535    86308641.32808
        51.000         152.359    21077452.570  
  22403761.039   117732564.77007        43.000         266.055    91739666.94104
        29.000         207.301    22403764.070  
  22838545.148   120017374.34007        44.000        1742.277    93520049.46507
        43.000        1357.633    22838547.695  
  23926809.055   125736258.28506        38.000        3482.824    97976313.66003
        20.000        2713.883    23926817.930  
  19946544.117   106326336.75008        51.000        2417.461    82698236.49607
        47.000        1880.125    19946546.016  
  19973265.992   106656043.83206        41.000       -1808.891    82954705.49207
        43.000       -1406.574    19973267.656  
  19767914.164   105707910.75807        46.000       -1643.781    82217218.66007
        43.000       -1278.316    19767912.031  
  22802518.805   121978094.33607        44.000       -3658.203                  
                                                
  20910543.625   111896485.65608        51.000        1759.500    87030631.87908
        49.000        1368.449    20910543.422  
 23  7 24 20 57 26.0000000  0 14G24G11G28G25G29G12G20G05G18R14R13R24            
                                R23R17                                          
  22176289.875   116537244.37106        37.000       -3023.719    90808221.96904
        24.000       -2356.098    22176296.805  
  22333919.875   117365450.18407        45.000       -2748.613    91453663.02705
        33.000       -2141.742    22333921.688  
  24216840.211   127260359.56307        43.000        2610.730    99163912.34004
        25.000        2034.344    24216840.922  
  21400460.125   112460097.24207        47.000        2126.945    87631345.45706
        37.000        1657.359    21400463.609  
  22029371.805   115765131.88307        47.000         543.688    90206604.55106
        38.000         423.648    22029374.570  
  21077413.359   110762561.37508        50.000         195.277    86308485.38708
        51.000         152.160    21077414.508  
  22403709.578   117732294.33207        43.000         265.293    91739456.21104
        29.000         206.723    22403712.633  
  22838212.664   120015627.44507        44.000        1742.102    93518688.24607
        43.000        1357.488    22838215.266  
  23926145.398   125732770.80106        38.000        3482.855    97973596.15203
        20.000        2713.855    23926154.289  
  19946089.648   106323914.77708        51.000        2417.051    82696352.73007
        47.000        1879.941    19946091.773  
  19973603.945   106657847.65206        41.000       -1808.859    82956108.46507
        42.000       -1407.078    19973605.484  
  19768220.766   105709549.94107        46.000       -1643.824    82218493.57407
        43.000       -1278.828    19768218.516  
  22803202.055   121981747.77307        44.000       -3658.219                  
                                                
  20910213.977   111894721.65608        51.000        1759.188    87029259.87508
        49.000        1368.023    20910213.844  
 23  7 24 20 57 27.0000000  0 14G24G11G28G25G29G12G20G05G18R14R13R24            
                                R23R17                                          
  22176863.523   116540259.32806        36.000       -3024.094    90810571.29704
        24.000       -2356.434    22176870.680  
  22334441.234   117368190.01207        45.000       -2748.473    91455797.95305
        33.000       -2141.645    22334443.078  
  24216341.773   127257739.84007        44.000        2610.715    99161871.00404
        25.000        2034.336    24216342.430  
  21400053.508   112457961.42207        47.000        2126.797    87629681.18006
        37.000        1657.234    21400057.227  
  22029266.500   115764579.21507        47.000         543.676    90206173.90206
        38.000         423.656    22029269.398  
  21077374.531   110762357.18008        50.000         195.293    86308326.27708
        51.000         152.180    21077375.672  
  22403657.320   117732020.03907        43.000         264.750    91739242.48004
        29.000         206.285    22403660.383  
  22837879.250   120013876.43807        44.000        1741.934    93517323.82807
        43.000        1357.336    22837882.086  
  23925481.422   125729279.14106        39.000        3482.480    97970875.37903
        20.000        2713.637    23925490.000  
  19945634.430   106321488.91408        51.000        2416.836    82694465.94507
        47.000        1879.445    19945636.797  
  19973940.734   106659647.71906        41.000       -1808.898    82957508.51207
        43.000       -1407.270    19973942.531  
  19768526.344   105711185.14807        46.000       -1644.160    82219765.39807
        42.000       -1278.867    19768524.023  
  22803884.109   121985396.68807        45.000       -3657.605                  
                                                
  20909883.383   111892953.78108        51.000        1758.645    87027884.84408
        49.000        1367.645    20909883.453  
 23  7 24 20 57 28.0000000  0 14G24G11G28G25G29G12G20G05G18R14R13R24            
                                R23R17                                          
  22177439.148   116543286.43406        36.000       -3024.828    90812930.09004
        24.000       -2357.004    22177446.914  
  22334964.953   117370942.06607        45.000       -2749.219    91457942.41405
        33.000       -2142.250    22334966.742  
  24215845.164   127255132.37507        44.000        2610.211    99159839.21904
        25.000        2033.898    24215846.242  
  21399649.227   112455837.60207        47.000        2126.828    87628026.26206
        38.000        1657.285    21399653.094  
  22029163.734   115764038.55907        47.000         543.641    90205752.61706
        38.000         423.613    22029166.469  
  21077337.977   110762165.16808        50.000         194.887    86308176.66008
        51.000         151.855    21077339.164  
  22403607.703   117731758.13707        43.000         264.770    91739038.39504
        29.000         206.309    22403610.539  
  22837548.672   120012137.58207        44.000        1741.695    93515968.87907
        43.000        1357.184    22837551.195  
  23924819.406   125725799.54306        38.000        3482.512    97968164.00403
        20.000        2713.645    23924827.961  
  19945181.531   106319075.63708        51.000        2416.145    82692588.94907
        47.000        1879.105    19945184.078  
  19974280.414   106661460.56306        41.000       -1810.172    82958918.49207
        43.000       -1407.953    19974282.086  
  19768834.359   105712832.93407        46.000       -1645.082    82221047.01207
        42.000       -1279.750    19768831.898  
  22804568.164   121989057.64507        45.000       -3657.922                  
                                                
  20909555.117   111891198.56608        51.000        1758.031    87026519.66808
        49.000        1367.383    20909555.430  
 23  7 24 20 57 29.0000000  0 14G24G11G28G25G29G12G20G05G18R14R13R24            
                                R23R17                                          
  22178016.875   116546317.39506        36.000       -3025.273    90815291.87104
        24.000       -2357.355    22178023.945  
  22335489.453   117373698.07407        45.000       -2749.723    91460089.95305
        33.000       -2142.641    22335491.211  
  24215350.023   127252528.94507        44.000        2609.547    99157810.57404
        25.000        2033.410    24215350.922  
  21399245.766   112453717.57807        47.000        2126.355    87626374.28906
        38.000        1656.922    21399249.672  
  22029061.484   115763501.71107        47.000         543.398    90205334.29306
        38.000         423.453    22029064.305  
  21077302.172   110761977.10908        50.000         194.320    86308030.12108
        51.000         151.422    21077303.398  
  22403558.656   117731500.43407        43.000         263.777    91738837.59004
        29.000         205.543    22403561.461  
  22837218.531   120010402.65607        44.000        1741.484    93514616.98807
        43.000        1357.004    22837221.047  
  23924157.523   125722323.79306        38.000        3482.305    97965455.63303
        20.000        2713.488    23924166.672  
  19944729.688   106316666.55508        51.000        2415.328    82690715.22307
        46.000        1878.641    19944732.188  
  19974620.781   106663277.76206        41.000       -1810.949    82960331.88707
        43.000       -1408.590    19974622.547  
  19769143.133   105714484.84007        46.000       -1645.605    82222331.84407
        42.000       -1280.121    19769140.516  
  22805253.664   121992722.21107        44.000       -3658.027                  
                                                
  20909228.133   111889447.60908        51.000        1757.219    87025157.84008
        49.000        1366.742    20909228.188  
 23  7 24 20 57 30.0000000  0 14G24G11G28G25G29G12G20G05G18R14R13R24            
                                R23R17                                          
  22178589.563   116549336.87906        36.000       -3024.836    90817644.70704
        24.000       -2356.961    22178598.680  
  22336011.914   117376442.70307        45.000       -2749.914    91462228.62505
        33.000       -2142.793    22336013.508  
  24214852.391   127249914.14507        43.000        2609.383    99155773.06304
        25.000        2033.293    24214853.445  
  21398840.320   112451585.94507        47.000        2126.492    87624713.28106
        38.000        1656.992    21398844.047  
  22028957.234   115762953.29707        47.000         543.113    90204906.96106
        38.000         423.188    22028959.945  
  21077264.148   110761777.62508        50.000         194.180    86307874.67608
        51.000         151.305    21077265.469  
  22403507.352   117731231.51607        42.000         263.512    91738628.03504
        29.000         205.344    22403510.297  
  22836886.141   120008656.30107        44.000        1740.891    93513256.18807
        43.000        1356.539    22836888.727  
  23923494.305   125718836.52006        38.000        3482.160    97962738.28503
        20.000        2713.340    23923502.961  
  19944275.492   106314246.14108        51.000        2414.527    82688832.68407
        46.000        1878.207    19944277.977  
  19974959.172   106665083.77006        41.000       -1812.039    82961736.54707
        43.000       -1409.309    19974960.734  
  19769449.820   105716125.31307        46.000       -1646.430    82223607.75407
        42.000       -1280.336    19769447.438  
  22805936.477   121996374.82807        44.000       -3658.020                  
                                                
  20908898.969   111887685.33608        51.000        1756.371    87023787.17208
        48.000        1366.223    20908898.898  
 23  7 24 20 57 31.0000000  0 14G24G11G28G25G29G12G20G05G18R14R13R24            
                                R23R17                                          
  22179164.633   116552358.79706        36.000       -3025.145    90819999.44904
        24.000       -2357.242    22179173.953  
  22336534.773   117379189.87507        45.000       -2750.832    91464369.28505
        33.000       -2143.508    22336536.273  
  24214355.570   127247301.95707        43.000        2608.707    99153737.59004
        25.000        2032.734    24214356.305  
  21398434.859   112449456.68407        47.000        2125.938    87623054.11706
        38.000        1656.559    21398438.875  
  22028853.281   115762407.24607        47.000         542.660    90204481.46906
        38.000         422.848    22028856.008  
  21077226.680   110761580.67608        50.000         193.605    86307721.20708
        51.000         150.859    21077228.000  
  22403456.578   117730965.35507        43.000         262.520    91738420.64104
        29.000         204.551    22403459.688  
  22836554.000   120006912.41007        44.000        1740.785    93511897.31307
        43.000        1356.453    22836556.898  
  23922831.195   125715351.66006        38.000        3481.539    97960022.83603
        20.000        2712.906    23922839.719  
  19943821.820   106311828.48408        51.000        2414.031    82686952.28507
        46.000        1877.633    19943824.461  
  19975297.656   106666892.69106        41.000       -1812.703    82963143.49207
        43.000       -1409.762    19975299.367  
  19769756.930   105717768.52307        46.000       -1646.918    82224885.82007
        42.000       -1280.965    19769754.711  
  22806619.328   122000029.59807        44.000       -3657.801                  
                                                
  20908569.875   111885925.85208        51.000        1755.824    87022418.69508
        49.000        1365.512    20908569.922  
 23  7 24 20 57 32.0000000  0 14G24G11G28G25G29G12G20G05G18R14R13R24            
                                R23R17                                          
  22179743.031   116555392.57806        36.000       -3025.348    90822363.43804
        24.000       -2357.414    22179751.406  
  22337059.648   117381948.99607        45.000       -2750.906    91466519.25405
        33.000       -2143.578    22337061.328  
  24213860.539   127244701.72307        43.000        2608.730    99151711.44504
        25.000        2032.770    24213861.555  
  21398032.016   112447339.16007        47.000        2125.973    87621404.10206
        38.000        1656.590    21398035.945  
  22028751.617   115761872.95707        47.000         542.578    90204065.14506
        38.000         422.789    22028754.297  
  21077191.555   110761395.62108        50.000         193.398    86307577.01608
        51.000         150.703    21077192.805  
  22403408.797   117730711.31607        43.000         262.336    91738222.69504
        29.000         204.410    22403411.344  
  22836224.461   120005180.43407        44.000        1740.402    93510547.72307
        43.000        1356.168    22836227.328  
  23922170.367   125711878.59006        38.000        3481.828    97957316.55503
        20.000        2713.105    23922178.867  
  19943370.703   106309423.13308        51.000        2413.695    82685081.46107
        47.000        1877.398    19943373.266  
  19975638.852   106668714.12906        41.000       -1813.227    82964560.16407
        43.000       -1410.145    19975640.438  
  19770066.273   105719424.03507        45.000       -1647.273    82226173.44107
        42.000       -1281.258    19770064.070  
  22807304.734   122003696.15207        44.000       -3658.250                  
                                                
  20908243.359   111884178.76608        51.000        1755.438    87021059.85508
        48.000        1365.301    20908243.508  
 23  7 24 20 57 33.0000000  0 14G24G11G28G25G29G12G20G05G18R14R13R24            
                                R23R17                                          
  22180319.180   116558419.28106        36.000       -3025.660    90824721.89804
        24.000       -2357.605    22180327.641  
  22337583.422   117384701.10507        45.000       -2750.574    91468663.75405
        33.000       -2143.313    22337585.070  
  24213364.297   127242094.58207        43.000        2608.309    99149679.89804
        25.000        2032.441    24213365.430  
  21397628.008   112445214.46907        47.000        2126.434    87619748.49206
        38.000        1656.953    21397631.641  
  22028648.398   115761331.50407        47.000         542.965    90203643.23006
        38.000         423.094    22028651.305  
  21077155.016   110761203.56608        50.000         193.656    86307427.35508
        51.000         150.906    21077156.289  
  22403358.781   117730450.50807        42.000         261.957    91738019.46504
        29.000         204.125    22403361.672  
  22835893.641   120003441.45307        44.000        1740.438    93509192.66407
        43.000        1356.188    22835896.422  
  23921507.719   125708398.43006        38.000        3481.730    97954604.73803
        20.000        2713.098    23921516.625  
  19942918.352   106307010.85908        51.000        2413.738    82683205.25007
        47.000        1877.281    19942920.938  
  19975978.617   106670528.83606        41.000       -1813.566    82965971.60507
        43.000       -1410.316    19975980.336  
  19770374.602   105721072.55507        45.000       -1647.184    82227455.62107
        42.000       -1281.059    19770372.031  
  22807988.898   122007355.18807        43.000       -3657.102                  
                                                
  20907915.906   111882424.80508        51.000        1755.402    87019695.66808
        49.000        1365.223    20907915.734  
 23  7 24 20 57 34.0000000  0 14G24G11G28G25G29G12G20G05G18R14R13R24            
                                R23R17                                          
  22180892.961   116561438.24606        36.000       -3025.883    90827074.32404
        24.000       -2357.770    22180902.289  
  22338105.547   117387445.59807        45.000       -2751.621    91470802.32005
        33.000       -2144.121    22338107.320  
  24212867.047   127239479.82407        43.000        2607.703    99147642.42604
        25.000        2031.977    24212868.000  
  21397222.000   112443081.93007        47.000        2125.297    87618086.77706
        38.000        1656.074    21397225.883  
  22028544.164   115760782.22707        47.000         542.066    90203215.22706
        38.000         422.371    22028546.781  
  21077117.047   110761003.84008        51.000         192.484    86307271.72308
        51.000         149.977    21077118.320  
  22403307.813   117730182.23407        42.000         261.102    91737810.42204
        29.000         203.473    22403310.602  
  22835561.242   120001694.75807        44.000        1739.531    93507831.60207
        43.000        1355.453    22835564.055  
  23920844.219   125704910.47706        38.000        3481.105    97951886.85903
        20.000        2712.570    23920852.805  
  19942464.445   106304591.00008        51.000        2412.613    82681323.13307
        47.000        1876.305    19942467.117  
  19976316.734   106672336.12906        41.000       -1814.953    82967377.28107
        43.000       -1411.578    19976318.813  
  19770681.227   105722713.37907        45.000       -1648.238    82228731.81606
        41.000       -1281.859    19770678.898  
  22808671.336   122011006.03507        44.000       -3657.723                  
                                                
  20907586.563   111880663.30108        51.000        1753.934    87018325.60208
        49.000        1364.391    20907586.563  
 23  7 24 20 57 35.0000000  0 14G24G11G28G25G29G12G20G05G18R14R13R24            
                                R23R17                                          
  22181469.477   116564465.91406        36.000       -3026.266    90829433.52704
        24.000       -2358.012    22181478.570  
  22338629.523   117390198.82007        45.000       -2751.766    91472947.69505
        33.000       -2144.254    22338631.266  
  24212370.805   127236873.87907        43.000        2607.195    99145611.82004
        25.000        2031.574    24212372.016  
  21396818.102   112440957.94107        47.000        2125.555    87616431.72706
        38.000        1656.281    21396821.719  
  22028441.031   115760241.52007        47.000         542.113    90202793.89806
        39.000         422.422    22028443.891  
  21077080.727   110760812.84808        51.000         192.258    86307122.89808
        51.000         149.828    21077082.000  
  22403258.461   117729922.93007        43.000         260.590    91737608.36304
        29.000         203.043    22403261.188  
  22835230.945   119999956.75407        44.000        1739.344    93506477.32407
        43.000        1355.332    22835233.336  
  23920182.047   125701431.14106        38.000        3481.254    97949175.70303
        20.000        2712.688    23920190.711  
  19942012.023   106302180.21108        51.000        2412.332    82679448.07807
        47.000        1876.148    19942014.750  
  19976657.063   106674152.71506        41.000       -1815.293    82968790.16407
        43.000       -1411.898    19976658.914  
  19770989.961   105724363.22307        45.000       -1648.250    82230015.03507
        42.000       -1282.070    19770987.547  
  22809355.109   122014665.41407        44.000       -3657.488                  
                                                
  20907258.992   111878910.96508        51.000        1754.109    87016962.68008
        49.000        1364.035    20907259.109  
 23  7 24 20 57 36.0000000  0 14G24G11G28G25G29G12G20G05G18R14R13R24            
                                R23R17                                          
  22182045.758   116567490.85906        36.000       -3025.227    90831790.60904
        24.000       -2357.313    22182054.398  
  22339152.984   117392949.52707        45.000       -2752.375    91475091.09805
        33.000       -2144.695    22339154.703  
  24211874.273   127234265.43007        43.000        2606.852    99143579.26204
        24.000        2031.324    24211875.695  
  21396413.398   112438831.23807        47.000        2125.086    87614774.55106
        38.000        1655.910    21396417.039  
  22028337.695   115759698.10207        47.000         541.891    90202370.45706
        39.000         422.258    22028340.523  
  21077043.891   110760619.28108        51.000         191.953    86306972.06608
        51.000         149.578    21077045.195  
  22403208.391   117729661.27707        42.000         260.156    91737404.48004
        28.000         202.711    22403211.328  
  22834899.781   119998216.15607        45.000        1739.078    93505121.01607
        43.000        1355.113    22834902.109  
  23919519.305   125697949.14106        38.000        3480.461    97946462.48003
        20.000        2711.973    23919528.133  
  19941559.180   106299767.08208        51.000        2411.434    82677571.19907
        46.000        1875.355    19941562.094  
  19976996.961   106675967.03906        41.000       -1816.066    82970201.32007
        43.000       -1412.563    19976998.852  
  19771297.805   105726010.64807        45.000       -1649.000    82231296.37106
        41.000       -1282.801    19771295.445  
  22810038.953   122018321.82007        44.000       -3657.730                  
                                                
  20906931.234   111877156.29708        51.000        1752.965    87015597.93808
        49.000        1363.398    20906931.273  
 23  7 24 20 57 37.0000000  0 14G24G11G28G25G29G12G20G05G18R14R13R24            
                                R23R17                                          
  22182619.750   116570509.87506        36.000       -3027.445    90834143.07004
        24.000       -2359.051    22182629.063  
  22339675.180   117395694.25807        45.000       -2752.668    91477229.85205
        33.000       -2144.938    22339677.016  
  24211376.734   127231651.07407        43.000        2606.527    99141542.10204
        24.000        2031.109    24211378.234  
  21396007.664   112436698.37107        47.000        2125.207    87613112.57406
        38.000        1656.000    21396011.180  
  22028232.969   115759148.54307        47.000         542.094    90201942.23006
        39.000         422.430    22028235.984  
  21077005.828   110760419.74608        51.000         191.891    86306816.58208
        51.000         149.520    21077007.258  
  22403157.469   117729393.87107        42.000         259.918    91737196.11704
        28.000         202.539    22403160.383  
  22834567.336   119996469.53907        44.000        1738.980    93503760.00807
        43.000        1355.039    22834569.727  
  23918855.430   125694461.07406        38.000        3480.207    97943744.52703
        20.000        2711.855    23918864.078  
  19941105.328   106297348.10508        51.000        2411.117    82675689.77707
        47.000        1875.348    19941108.141  
  19977335.531   106677775.67606        41.000       -1816.504    82971608.03507
        43.000       -1412.883    19977337.570  
  19771604.531   105727652.18007        45.000       -1649.398    82232573.13706
        41.000       -1283.047    19771602.453  
  22810720.813   122021971.76607        43.000       -3657.863                  
                                                
  20906602.078   111875395.78108        51.000        1752.559    87014228.65608
        49.000        1363.148    20906602.203  
 23  7 24 20 57 38.0000000  0 14G24G11G28G25G29G12G20G05G18R14R13R24            
                                R23R17                                          
  22183196.844   116573539.84406        36.000       -3026.371    90836504.08204
        24.000       -2358.242    22183205.906  
  22340199.898   117398450.11707        45.000       -2752.883    91479377.27705
        33.000       -2145.113    22340201.398  
  24210881.461   127229047.87107        43.000        2606.270    99139513.63304
        24.000        2030.887    24210882.805  
  21395603.633   112434576.42607        47.000        2125.125    87611459.11306
        38.000        1655.945    21395607.383  
  22028130.461   115758609.92607        47.000         541.805    90201522.52706
        39.000         422.184    22028133.508  
  21076970.047   110760231.28908        51.000         191.676    86306669.73408
        51.000         149.367    21076971.414  
  22403108.594   117729137.80107        42.000         259.059    91736996.58604
        28.000         201.859    22403111.648  
  22834237.070   119994733.99207        45.000        1738.949    93502407.63307
        43.000        1355.039    22834239.461  
  23918193.563   125690983.97706        38.000        3480.027    97941035.09403
        20.000        2711.723    23918202.141  
  19940653.586   106294940.58608        51.000        2410.613    82673817.25407
        47.000        1874.879    19940656.594  
  19977676.164   106679595.96506        41.000       -1816.789    82973023.82807
        43.000       -1413.563    19977678.383  
  19771913.430   105729305.14107        45.000       -1650.020    82233858.75806
        41.000       -1283.113    19771911.289  
  22811405.195   122025632.65207        44.000       -3657.688                  
                                                
  20906275.047   111873646.81608        51.000        1752.270    87012868.35208
        49.000        1362.797    20906275.563  
 23  7 24 20 57 39.0000000  0 14G24G11G28G25G29G12G20G05G18R14R13R24            
                                R23R17                                          
  22183774.273   116576573.22706        36.000       -3027.457    90838867.73404
        25.000       -2359.000    22183783.297  
  22340725.180   117401209.42607        45.000       -2753.320    91481527.38305
        33.000       -2145.449    22340726.523  
  24210386.398   127226448.18807        43.000        2605.676    99137487.91004
        24.000        2030.406    24210388.180  
  21395200.711   112432457.78107        47.000        2124.547    87609808.22306
        38.000        1655.492    21395204.242  
  22028028.813   115758074.59807        47.000         541.188    90201105.38706
        39.000         421.711    22028031.648  
  21076934.758   110760046.28908        51.000         190.906    86306525.57408
        51.000         148.762    21076936.250  
  22403060.461   117728885.39107        42.000         257.941    91736799.90204
        28.000         200.977    22403063.570  
  22833907.734   119993001.86707        45.000        1738.488    93501057.92207
        43.000        1354.664    22833909.836  
  23917532.820   125687510.19906        38.000        3479.945    97938328.25003
        20.000        2711.637    23917541.023  
  19940202.758   106292536.75808        51.000        2409.719    82671947.60507
        47.000        1874.102    19940205.438  
  19978018.250   106681420.16806        41.000       -1818.184    82974442.62107
        43.000       -1414.188    19978020.102  
  19772223.430   105730961.71907        45.000       -1650.367    82235147.19906
        41.000       -1283.742    19772221.281  
  22812090.375   122029296.69907        44.000       -3657.672                  
                                                
  20905949.125   111871901.67208        51.000        1751.027    87011511.00008
        49.000        1361.969    20905949.461  
 23  7 24 20 57 40.0000000  0 14G24G11G28G25G29G12G20G05G18R14R13R24            
                                R23R17                                          
  22184349.172   116579595.01206        36.000       -3027.332    90841222.35904
        25.000       -2358.953    22184358.531  
  22341248.211   117403957.28107        45.000       -2753.414    91483668.57405
        33.000       -2145.512    22341249.461  
  24209889.789   127223837.08607        43.000        2605.371    99135453.27704
        25.000        2030.156    24209891.414  
  21394795.180   112430327.45707        47.000        2124.832    87608148.22706
        38.000        1655.723    21394798.859  
  22027924.688   115757527.61307        47.000         541.555    90200679.16006
        39.000         421.992    22027927.586  
  21076897.617   110759849.79708        50.000         191.098    86306372.46108
        51.000         148.914    21076898.883  
  22403010.742   117728621.72707        42.000         257.828    91736594.45304
        28.000         200.910    22403013.414  
  22833575.719   119991258.23007        44.000        1738.168    93499699.25007
        43.000        1354.410    22833578.039  
  23916869.656   125684024.85506        38.000        3479.605    97935612.40203
        20.000        2711.371    23916877.758  
  19939749.766   106290121.43008        51.000        2409.547    82670069.02307
        47.000        1874.402    19939752.414  
  19978357.258   106683233.02306        40.000       -1819.102    82975852.64107
        43.000       -1414.488    19978359.711  
  19772531.242   105732606.71507        45.000       -1650.582    82236426.66006
        41.000       -1283.598    19772529.211  
  22812773.586   122032948.60507        44.000       -3657.684                  
                                                
  20905620.969   111870145.03508        51.000        1750.957    87010144.75008
        49.000        1361.672    20905621.219  
 23  7 24 20 57 41.0000000  0 14G24G11G28G25G29G12G20G05G18R14R13R24            
                                R23R17                                          
  22184924.188   116582619.04706        36.000       -3027.230    90843578.75404
        25.000       -2358.934    22184934.102  
  22341771.609   117406707.48807        46.000       -2753.879    91485811.59805
        33.000       -2145.883    22341772.844  
  24209393.141   127221228.36707        43.000        2604.895    99133420.51204
        25.000        2029.777    24209395.070  
  21394390.352   112428199.28907        47.000        2124.273    87606489.91806
        38.000        1655.273    21394393.898  
  22027821.055   115756982.82007        47.000         540.984    90200254.64806
        39.000         421.527    22027823.906  
  21076860.641   110759655.64508        50.000         190.109    86306221.18008
        51.000         148.133    21076861.953  
  22402960.977   117728360.60207        42.000         256.953    91736390.97304
        28.000         200.211    22402963.695  
  22833244.578   119989516.90607        44.000        1737.504    93498342.38307
        43.000        1353.898    22833246.680  
  23916207.094   125680541.69106        38.000        3479.207    97932898.25403
        20.000        2711.086    23916215.086  
  19939297.008   106287708.71908        51.000        2408.645    82668192.48007
        47.000        1873.316    19939299.781  
  19978696.984   106685048.64806        40.000       -1819.539    82977264.79307
        43.000       -1415.063    19978699.617  
  19772838.945   105734254.30507        45.000       -1651.617    82237708.12506
        41.000       -1284.680    19772837.375  
  22813456.258   122036602.52007        44.000       -3657.773                  
                                                
  20905292.891   111868391.07408        51.000        1749.938    87008780.56608
        49.000        1361.000    20905293.492  
 23  7 24 20 57 42.0000000  0 14G24G11G28G25G29G12G20G05G18R14R13R24            
                                R23R17                                          
  22185501.320   116585655.66006        36.000       -3028.211    90845944.94904
        25.000       -2359.629    22185512.078  
  22342297.578   117409470.30507        46.000       -2754.164    91487964.44505
        34.000       -2146.090    22342298.594  
  24208899.141   127218632.29707        43.000        2604.969    99131397.60904
        25.000        2029.844    24208901.078  
  21393987.563   112426083.53907        47.000        2124.664    87604841.28506
        38.000        1655.566    21393991.297  
  22027719.602   115756450.43807        47.000         541.273    90199839.80506
        39.000         421.777    22027722.594  
  21076826.102   110759474.05508        51.000         190.320    86306079.68408
        51.000         148.297    21076827.406  
  22402913.625   117728112.29307        42.000         256.875    91736197.48404
        28.000         200.156    22402916.383  
  22832915.406   119987788.14807        44.000        1737.473    93496995.29707
        43.000        1353.875    22832917.711  
  23915546.820   125677071.02006        38.000        3479.555    97930193.83603
        20.000        2711.320    23915554.578  
  19938846.781   106285308.98808        51.000        2408.484    82666326.02707
        46.000        1873.027    19938849.375  
  19979039.430   106686877.48006        41.000       -1820.055    82978687.22307
        43.000       -1415.656    19979042.203  
  19773149.359   105735914.85207        45.000       -1651.496    82238999.66806
        41.000       -1284.734    19773148.133  
  22814141.625   122040268.87107        44.000       -3657.359                  
                                                
  20904967.609   111866650.17208        51.000        1749.598    87007426.52708
        49.000        1360.918    20904967.906  
 23  7 24 20 57 43.0000000  0 14G24G11G28G25G29G12G20G05G18R14R13R24            
                                R23R17                                          
  22186078.664   116588685.02306        36.000       -3027.766    90848305.47304
        24.000       -2359.227    22186088.508  
  22342822.070   117412226.02007        46.000       -2754.637    91490111.75405
        34.000       -2146.473    22342823.039  
  24208403.781   127216029.19107        42.000        2604.199    99129369.20704
        25.000        2029.262    24208405.797  
  21393583.797   112423960.51207        47.000        2124.250    87603186.98006
        38.000        1655.262    21393587.328  
  22027617.180   115755910.78907        47.000         540.781    90199419.29706
        39.000         421.379    22027619.898  
  21076790.133   110759285.35908        51.000         189.836    86305932.64508
        51.000         147.934    21076791.531  
  22402864.828   117727857.07807        42.000         256.492    91735998.60904
        28.000         199.891    22402867.742  
  22832584.680   119986052.21907        45.000        1737.020    93495642.62507
        43.000        1353.512    22832587.398  
  23914885.352   125673593.10206        38.000        3479.164    97927483.77703
        20.000        2711.039    23914892.953  
  19938395.375   106282902.28108        51.000        2407.809    82664454.14107
        46.000        1872.922    19938397.945  
  19979380.836   106688699.49606        41.000       -1821.418    82980104.33607
        43.000       -1416.387    19979383.633  
  19773458.633   105737568.32807        45.000       -1652.199    82240285.71506
        41.000       -1285.238    19773457.172  
  22814825.977   122043927.57407        44.000       -3657.332                  
                                                
  20904641.211   111864902.31608        51.000        1748.844    87006067.09008
        48.000        1360.070    20904641.211  
 23  7 24 20 57 44.0000000  0 14G24G11G28G25G29G12G20G05G18R14R13R24            
                                R23R17                                          
  22186652.258   116591700.12106        36.000       -3027.926    90850654.89504
        24.000       -2359.457    22186662.242  
  22343343.516   117414967.55907        46.000       -2755.105    91492248.01605
        34.000       -2146.844    22343344.766  
