     2.10           OBSERVATION DATA    M (MIXED)           RINEX VERSION / TYPE
ComNav                                                      PGM / RUN BY / DATE 
comnav12                                                    MARKER NAME         
                                                            OBSERVER / AGENCY   
N31L04806           ComNav              55.0                REC # / TYPE / VERS 
                    Unknown                                 ANT # / TYPE        
  3752778.2051 -4538402.1884 -2442731.4069                  APPROX POSITION XYZ 
        1.8000        0.0000        0.0000                  ANTENNA: DELTA H/E/N
     1     1                                                WAVELENGTH FACT L1/2
     8    C1    L1    S1    D1    L2    S2    D2    P2      # / TYPES OF OBSERV 
     1.000                                                  INTERVAL
  2023     7    24    21    22   53.000000      GPS         TIME OF FIRST OBS   
                                                            END OF HEADER       
 23  7 24 21 22 53.0000000  0 14G24G11G28G25G29G12G20G05G18R14R15R13            
                                R24R17                                          
  23099420.383   121388243.15207        42.000       -3286.230    94588273.05906
        41.000       -2560.707    23099428.914  
  23198637.391   121909570.75807        43.000       -3163.879    94994516.19504
        25.000       -2465.336    23198640.016  
  23553983.461   123777054.12507        44.000        1923.180    96449636.52703
        21.000        1498.602    23553986.539  
  20826184.734   109442269.84008        51.000        1792.168    85279771.64106
        37.000        1396.480    20826188.375  
  21904101.359   115106845.03108        49.000         334.406    89693652.09007
        43.000         260.598    21904100.727  
  21099220.719   110877159.61708        49.000        -366.828    86397783.43407
        46.000        -285.852    21099220.922  
  22452735.586   117989933.38306        41.000        -613.301    91940174.82803
        23.000        -477.910    22452736.883  
  22409015.695   117760192.39107        45.000        1175.406    91761209.19906
        38.000         915.887    22409017.633  
  22971153.852   120714304.41807        47.000        3058.941    94063070.07405
        30.000        2383.598    22971158.039  
  19387239.859   103344938.77708        51.000        1434.434    80379372.00008
        49.000        1115.645    19387241.219  
  22783528.219   121748400.66408        49.000        4007.809    94693153.00807
        47.000        3117.223    22783527.711  
  20641482.453   110224280.03506        38.000       -2836.805    85729999.08206
        41.000       -2206.098    20641484.813  
  20329110.367   108708878.05908        49.000       -2233.793    84551270.31606
        39.000       -1737.828    20329108.664  
  20536684.414   109895895.78508        51.000         867.578    85474619.94907
        47.000         674.652    20536682.391  
 23  7 24 21 22 54.0000000  0 14G24G11G28G25G29G12G20G05G18R14R15R13            
                                R24R17                                          
  23100047.133   121391536.56607        42.000       -3286.375    94590839.36306
        41.000       -2560.820    23100055.656  
  23199240.711   121912741.75007        43.000       -3163.852    94996987.09404
        25.000       -2465.336    23199243.438  
  23553618.516   123775138.44507        43.000        1922.867    96448143.78503
        21.000        1498.352    23553622.031  
  20825845.117   109440485.08208        50.000        1791.727    85278380.92206
        37.000        1396.148    20825848.750  
  21904039.094   115106517.84808        50.000         334.234    89693397.13707
        43.000         260.434    21904038.430  
  21099292.000   110877533.93408        49.000        -367.395    86398075.11307
        46.000        -286.293    21099292.164  
  22452853.820   117990554.17606        41.000        -613.824    91940658.57004
        25.000        -478.309    22452855.016  
  22408793.516   117759024.40207        45.000        1174.789    91760299.08606
        41.000         915.410    22408795.289  
  22970573.328   120711252.81607        47.000        3058.609    94060692.20305
        30.000        2383.348    22970577.273  
  19386972.297   103343512.08208        51.000        1433.621    80378262.35208
        49.000        1115.105    19386973.555  
  22782779.969   121744400.33608        49.000        4007.535    94690041.66007
        46.000        3116.801    22782779.164  
  20642015.352   110227124.48806        38.000       -2837.113    85732211.45306
        41.000       -2207.098    20642017.555  
  20329529.609   108711119.52008        49.000       -2234.148    84553013.67206
        39.000       -1738.117    20329527.813  
  20536523.742   109895035.99608        51.000         866.805    85473951.22307
        47.000         674.234    20536521.914  
 23  7 24 21 22 55.0000000  0 14G24G11G28G25G29G12G20G05G18R14R15R13            
                                R24R17                                          
  23100671.477   121394817.89807        42.000       -3286.316    94593396.25006
        41.000       -2560.762    23100680.117  
  23199842.047   121915900.78907        43.000       -3164.148    94999448.68804
        25.000       -2465.570    23199844.617  
  23553251.797   123773211.10507        43.000        1922.043    96446641.96104
        27.000        1497.738    23553255.336  
  20825503.383   109438688.44908        50.000        1791.340    85276980.94906
        41.000        1395.840    20825506.852  
  21903974.531   115106178.61708        49.000         334.047    89693132.80107
        43.000         260.301    21903973.844  
  21099360.945   110877896.49608        49.000        -367.910    86398357.62908
        51.000        -286.672    21099361.164  
  22452969.727   117991163.39806        41.000        -614.754    91941133.29704
        25.000        -479.070    22452971.055  
  22408568.953   117757844.69507        44.000        1174.164    91759379.84006
        41.000         914.969    22408570.695  
  22969990.328   120708189.39507        46.000        3058.043    94058305.12105
        30.000        2382.879    22969994.297  
  19386702.469   103342073.77308        51.000        1432.781    80377143.66408
        49.000        1114.434    19386703.750  
  22782029.102   121740387.78108        49.000        4007.313    94686920.78107
        46.000        3116.566    22782028.258  
  20642545.375   110229957.21906        38.000       -2838.223    85734414.68406
        41.000       -2207.414    20642547.977  
  20329946.563   108713348.87908        49.000       -2234.547    84554747.60506
        38.000       -1737.684    20329945.133  
  20536360.734   109894164.38308        51.000         866.273    85473273.30107
        47.000         673.840    20536359.047  
 23  7 24 21 22 56.0000000  0 14G24G11G28G25G29G12G20G05G18R14R15R13            
                                R24R17                                          
  23101296.156   121398101.37907        42.000       -3286.680    94595954.80906
        41.000       -2561.031    23101304.977  
  23200443.398   121919062.07007        43.000       -3164.594    95001912.02304
        28.000       -2465.887    23200446.156  
  23552885.383   123771286.31607        43.000        1921.313    96445142.12504
        27.000        1497.133    23552889.047  
  20825161.930   109436894.14508        50.000        1790.973    85275582.79306
        41.000        1395.555    20825165.422  
  21903910.531   115105841.53908        49.000         333.742    89692870.14108
        48.000         260.070    21903909.695  
  21099430.375   110878261.50408        49.000        -368.469    86398642.05908
        51.000        -287.125    21099430.633  
  22453086.016   117991775.24606        41.000        -615.129    91941610.07404
        25.000        -479.332    22453087.547  
  22408345.008   117756667.44107        44.000        1173.813    91758462.51206
        41.000         914.648    22408346.555  
  22969407.656   120705128.34807        46.000        3057.703    94055919.89105
        30.000        2382.629    22969411.719  
  19386433.148   103340638.28108        51.000        1431.988    80376027.16808
        49.000        1113.840    19386434.375  
  22781278.414   121736377.46108        49.000        4007.109    94683801.63307
        46.000        3116.684    22781277.586  
  20643076.211   110232792.66806        38.000       -2838.637    85736620.03906
        41.000       -2208.348    20643078.938  
  20330363.805   108715580.62108        49.000       -2235.156    84556483.40606
        38.000       -1738.168    20330362.227  
  20536197.992   109893295.39508        51.000         865.625    85472597.40607
        47.000         673.336    20536196.602  
 23  7 24 21 22 57.0000000  0 14G24G11G28G25G29G12G20G05G18R14R15R13            
                                R24R17                                          
  23101923.203   121401396.97706        41.000       -3286.949    94598522.81607
        46.000       -2561.254    23101932.148  
  23201047.492   121922235.56607        43.000       -3164.723    95004384.88704
        28.000       -2466.023    23201050.055  
  23552521.398   123769374.04707        43.000        1921.105    96443652.04704
        27.000        1496.957    23552525.164  
  20824822.906   109435112.16408        50.000        1790.695    85274194.24206
        41.000        1395.340    20824826.320  
  21903848.555   115105516.58608        49.000         333.816    89692616.93008
        48.000         260.113    21903847.875  
  21099502.188   110878638.96908        49.000        -368.949    86398936.18808
        51.000        -287.488    21099502.461  
  22453204.563   117992399.72306        41.000        -615.754    91942096.68404
        25.000        -479.816    22453206.422  
  22408123.305   117755502.67207        44.000        1173.465    91757554.89806
        41.000         914.375    22408124.820  
  22968827.781   120702079.68007        46.000        3057.211    94053544.30905
        35.000        2382.230    22968831.539  
  19386166.344   103339215.76608        51.000        1431.141    80374920.77308
        49.000        1113.180    19386167.461  
  22780530.234   121732379.53508        49.000        4006.965    94680692.14807
        46.000        3116.434    22780529.523  
  20643609.719   110235640.96506        38.000       -2839.645    85738835.37106
        41.000       -2208.520    20643612.297  
  20330783.422   108717824.91408        49.000       -2235.387    84558228.95306
        39.000       -1738.348    20330782.016  
  20536038.039   109892439.19508        51.000         864.902    85471931.48407
        47.000         672.695    20536036.648  
 23  7 24 21 22 58.0000000  0 14G24G11G28G25G29G12G20G05G18R14R15R13            
                                R24R17                                          
  23102549.352   121404684.93807        42.000       -3286.629    94601084.85907
        46.000       -2561.023    23102557.875  
  23201650.133   121925401.56607        43.000       -3164.605    95006851.89804
        28.000       -2465.914    23201652.484  
  23552156.125   123767454.57007        43.000        1920.504    96442156.34804
        27.000        1496.523    23552159.977  
  20824482.320   109433322.75008        50.000        1790.555    85272799.89506
        41.000        1395.238    20824485.773  
  21903785.344   115105184.03508        49.000         333.883    89692357.80108
        48.000         260.168    21903784.594  
  21099572.766   110879009.11708        49.000        -368.887    86399224.61308
        51.000        -287.445    21099572.898  
  22453322.625   117993017.10506        41.000        -616.488    91942577.76604
        27.000        -480.363    22453323.938  
  22407900.375   117754330.64107        44.000        1173.129    91756641.62907
        42.000         914.125    22407901.703  
  22968246.195   120699023.63307        46.000        3057.301    94051162.97305
        35.000        2382.309    22968249.961  
  19385898.109   103337786.15208        51.000        1430.711    80373808.85508
        49.000        1112.648    19385899.133  
  22779780.750   121728373.93008        49.000        4006.988    94677576.67207
        46.000        3116.473    22779779.844  
  20644142.234   110238482.03906        38.000       -2839.809    85741045.09806
        41.000       -2208.965    20644144.570  
  20331201.813   108720061.62908        49.000       -2235.352    84559968.64106
        39.000       -1738.840    20331200.695  
  20535876.805   109891575.71508        51.000         864.641    85471259.88707
        47.000         672.426    20535875.461  
 23  7 24 21 22 59.0000000  0 14G24G11G28G25G29G12G20G05G18R14R15R13            
                                R24R17                                          
  23103172.117   121407958.76206        41.000       -3286.797    94603635.88707
        46.000       -2561.133    23103180.930  
  23202250.195   121928553.53107        43.000       -3165.230    95009307.97704
        28.000       -2466.422    23202252.219  
  23551788.641   123765521.37107        42.000        1920.031    96440649.96104
        28.000        1496.109    23551792.180  
  20824138.969   109431519.39808        50.000        1790.336    85271394.68806
        41.000        1395.063    20824142.594  
  21903719.469   115104837.36308        49.000         333.750    89692087.66808
        48.000         260.070    21903718.633  
  21099640.477   110879365.45308        49.000        -369.309    86399502.27708
        51.000        -287.773    21099640.703  
  22453437.719   117993620.82406        41.000        -616.906    91943048.19904
        27.000        -480.730    22453438.766  
  22407674.555   117753144.79307        44.000        1172.859    91755717.59807
        42.000         913.902    22407675.961  
  22967662.172   120695953.69507        46.000        3057.055    94048770.81305
        35.000        2382.109    22967665.750  
  19385627.289   103336342.81608        51.000        1429.980    80372686.26208
        49.000        1112.188    19385628.461  
  22779028.516   121724354.01608        49.000        4006.621    94674450.05507
        46.000        3116.527    22779027.477  
  20644671.453   110241309.29706        38.000       -2841.129    85743244.03906
        41.000       -2209.070    20644674.008  
  20331617.563   108722284.14508        48.000       -2235.559    84561697.25806
        39.000       -1738.844    20331616.344  
  20535712.625   109890698.34408        51.000         864.000    85470577.48807
        47.000         672.203    20535711.664  
 23  7 24 21 23  0.0000000  0 14G24G11G28G25G29G12G20G05G18R14R15R13            
                                R24R17                                          
  23103796.656   121411239.61306        41.000       -3286.887    94606192.38307
        46.000       -2561.203    23103805.289  
  23202851.383   121931712.61707        43.000       -3165.094    95011769.60904
        28.000       -2466.324    23202853.406  
  23551421.820   123763595.63307        43.000        1919.277    96439149.39504
        28.000        1495.551    23551425.766  
  20823797.289   109429723.27008        50.000        1790.047    85269995.10906
        41.000        1394.832    20823800.789  
  21903654.750   115104497.73808        49.000         333.652    89691823.02708
        48.000         259.984    21903654.008  
  21099709.625   110879729.14508        49.000        -369.793    86399785.67608
        51.000        -288.145    21099709.914  
  22453554.133   117994232.09006        41.000        -617.457    91943524.52004
        27.000        -481.148    22453555.141  
  22407450.320   117751966.33607        44.000        1172.344    91754799.32407
        42.000         913.508    22407451.617  
  22967079.344   120692891.03907        46.000        3056.523    94046384.33605
        35.000        2381.695    22967082.891  
  19385357.930   103334907.25808        51.000        1429.219    80371569.72308
        49.000        1111.367    19385359.156  
  22778277.469   121720341.28908        49.000        4006.641    94671329.07407
        46.000        3116.145    22778276.633  
  20645202.203   110244144.16006        38.000       -2840.969    85745448.96906
        41.000       -2210.047    20645204.750  
  20332034.281   108724514.00408        49.000       -2236.188    84563431.59406
        39.000       -1739.250    20332033.703  
  20535549.719   109889828.59008        51.000         863.223    85469901.01607
        47.000         671.484    20535549.055  
 23  7 24 21 23  1.0000000  0 14G24G11G28G25G29G12G20G05G18R14R15R13            
                                R24R17                                          
  23104423.789   121414536.64106        41.000       -3287.113    94608761.49207
        46.000       -2561.395    23104432.727  
  23203455.164   121934888.02307        43.000       -3165.520    95014243.94904
        28.000       -2466.602    23203457.695  
  23551058.703   123761686.48807        43.000        1919.051    96437661.75004
        28.000        1495.379    23551062.539  
  20823458.367   109427943.54308        50.000        1789.543    85268608.31306
        41.000        1394.453    20823462.109  
  21903593.070   115104174.32008        49.000         333.387    89691571.01608
        48.000         259.777    21903592.461  
  21099781.992   110880109.34808        49.000        -370.230    86400081.94508
        51.000        -288.492    21099782.258  
  22453673.852   117994860.05106        41.000        -618.055    91944013.83204
        27.000        -481.637    22453674.656  
  22407229.016   117750804.41407        44.000        1171.598    91753893.94107
        42.000         912.922    22407230.422  
  22966499.547   120689844.81607        46.000        3056.223    94044010.66405
        35.000        2381.461    22966503.211  
  19385091.844   103333488.78108        51.000        1428.281    80370466.44908
        49.000        1111.070    19385093.148  
  22777529.422   121716345.09008        49.000        4006.371    94668220.91807
        46.000        3115.875    22777528.781  
  20645736.617   110246996.06606        38.000       -2842.051    85747667.09806
        41.000       -2210.406    20645738.945  
  20332454.398   108726760.57008        48.000       -2236.438    84565178.93806
        39.000       -1739.645    20332453.930  
  20535390.203   109888975.76608        51.000         862.766    85469237.71907
        47.000         671.008    20535389.609  
 23  7 24 21 23  2.0000000  0 14G24G11G28G25G29G12G20G05G18R14R15R13            
                                R24R17                                          
  23105051.000   121417833.48806        41.000       -3286.727    94611330.45707
        46.000       -2561.109    23105060.141  
  23204059.492   121938063.32807        43.000       -3165.539    95016718.21504
        28.000       -2466.637    23204061.953  
  23550695.422   123759777.55507        43.000        1918.473    96436174.27704
        28.000        1494.938    23550699.273  
  20823119.828   109426163.81608        50.000        1789.379    85267221.51206
        41.000        1394.324    20823123.406  
  21903531.438   115103850.72708        49.000         333.301    89691318.86708
        48.000         259.715    21903530.883  
  21099854.438   110880489.68408        49.000        -370.914    86400378.30908
        51.000        -289.023    21099854.648  
  22453793.203   117995488.30906        41.000        -618.758    91944503.38704
        27.000        -482.156    22453794.180  
  22407007.945   117749642.67207        44.000        1171.242    91752988.68407
        42.000         912.656    22407009.281  
  22965919.672   120686798.66007        46.000        3055.695    94041637.03905
        35.000        2381.059    22965923.516  
  19384825.898   103332070.79308        51.000        1427.574    80369363.57808
        49.000        1110.242    19384827.211  
  22776781.797   121712348.74608        49.000        4006.148    94665112.63707
        47.000        3115.898    22776781.078  
  20646271.242   110249848.27706        38.000       -2842.645    85749885.47306
        41.000       -2210.680    20646273.203  
  20332874.648   108729007.15208        49.000       -2236.980    84566926.27706
        40.000       -1739.770    20332874.523  
  20535231.008   109888123.21908        51.000         862.063    85468574.62907
        47.000         670.457    20535230.445  
 23  7 24 21 23  3.0000000  0 14G24G11G28G25G29G12G20G05G18R14R15R13            
                                R24R17                                          
  23105676.141   121421116.78506        41.000       -3287.141    94613888.85907
        46.000       -2561.406    23105684.977  
  23204661.141   121941225.21107        42.000       -3165.891    95019182.02004
        28.000       -2466.918    23204663.602  
  23550329.695   123757855.48807        43.000        1918.340    96434676.57004
        28.000        1494.797    23550333.555  
  20822778.586   109424370.72708        50.000        1789.363    85265824.29706
        41.000        1394.316    20822782.141  
  21903467.430   115103513.59808        49.000         333.422    89691056.17208
        48.000         259.813    21903466.711  
  21099924.063   110880856.77308        49.000        -370.941    86400664.35208
        51.000        -289.055    21099924.508  
  22453910.148   117996103.51606        41.000        -618.715    91944982.76604
        27.000        -482.133    22453911.281  
  22406784.336   117748467.72707        43.000        1171.063    91752073.14507
        42.000         912.520    22406785.641  
  22965337.609   120683739.19507        46.000        3055.574    94039253.04705
        35.000        2380.973    22965341.320  
  19384557.430   103330639.72308        51.000        1427.043    80368250.51608
        49.000        1109.930    19384558.766  
  22776031.391   121708338.64808        49.000        4006.129    94661993.69107
        47.000        3115.953    22776030.688  
  20646802.656   110252687.19906        38.000       -2842.656    85752093.56306
        41.000       -2211.512    20646804.945  
  20333292.195   108731240.11708        49.000       -2236.680    84568663.03106
        40.000       -1739.953    20333292.266  
  20535069.266   109887257.34808        51.000         861.680    85467901.18007
        47.000         670.180    20535068.742  
 23  7 24 21 23  4.0000000  0 14G24G11G28G25G29G12G20G05G18R14R15R13            
                                R24R17                                          
  23106300.195   121424395.66806        41.000       -3287.141    94616443.83207
        46.000       -2561.406    23106308.969  
  23205261.805   121944382.75807        42.000       -3166.090    95021642.45704
        28.000       -2467.105    23205264.438  
  23549963.078   123755929.43007        43.000        1917.648    96433175.73804
        28.000        1494.273    23549967.102  
  20822436.539   109422573.45308        50.000        1788.824    85264423.82406
        41.000        1393.898    20822440.117  
  21903402.375   115103172.09408        49.000         333.156    89690790.06608
        48.000         259.594    21903401.711  
  21099993.141   110881219.78508        49.000        -371.473    86400947.22308
        51.000        -289.465    21099993.594  
  22454026.336   117996714.83206        41.000        -619.730    91945459.12504
        27.000        -482.906    22454027.648  
  22406559.852   117747288.73007        43.000        1170.695    91751154.44507
        42.000         912.227    22406561.211  
  22964754.563   120680675.57007        46.000        3055.313    94036865.80905
        35.000        2380.742    22964758.297  
  19384288.125   103329204.84008        51.000        1426.148    80367134.49608
        49.000        1109.262    19384289.617  
  22775280.070   121704324.16008        49.000        4006.043    94658871.29707
        46.000        3115.855    22775279.477  
  20647333.227   110255522.20706        38.000       -2843.145    85754298.55506
        41.000       -2211.879    20647335.844  
  20333708.883   108733468.79308        48.000       -2237.270    84570396.43406
        40.000       -1739.961    20333709.211  
  20534906.555   109886387.47708        51.000         861.121    85467224.59808
        48.000         670.035    20534906.039  
 23  7 24 21 23  5.0000000  0 14G24G11G28G25G29G12G20G05G18R14R15R13            
                                R24R17                                          
  23106926.398   121427686.60207        42.000       -3287.098    94619008.19107
        45.000       -2561.375    23106935.250  
  23205865.250   121947552.50007        42.000       -3166.277    95024112.38304
        28.000       -2467.207    23205867.609  
  23549599.289   123754015.86707        42.000        1916.859    96431684.65604
        28.000        1493.652    23549602.938  
  20822097.000   109420788.42608        50.000        1788.453    85263032.89506
        41.000        1393.598    20822100.430  
  21903339.703   115102842.64808        48.000         332.898    89690533.35508
        48.000         259.398    21903339.016  
  21100064.461   110881595.18408        49.000        -372.098    86401239.74208
        51.000        -289.941    21100065.039  
  22454145.484   117997338.71906        41.000        -620.500    91945945.27004
        27.000        -483.504    22454146.430  
  22406338.156   117746122.16807        43.000        1169.703    91750245.44507
        42.000         911.449    22406339.133  
  22964174.047   120677624.27007        46.000        3054.656    94034488.17605
        35.000        2380.250    22964177.609  
  19384021.281   103327782.82808        51.000        1425.199    80366028.49208
        49.000        1108.492    19384022.781  
  22774531.016   121700321.98408        49.000        4005.738    94655758.51207
        46.000        3115.402    22774530.617  
  20647866.320   110258370.00406        38.000       -2844.219    85756513.49206
        41.000       -2212.387    20647868.859  
  20334127.742   108735709.94508        48.000       -2237.613    84572139.53906
        40.000       -1740.180    20334128.492  
  20534746.102   109885530.34808        51.000         860.414    85466557.95308
        48.000         669.152    20534745.781  
 23  7 24 21 23  6.0000000  0 14G24G11G28G25G29G12G20G05G18R14R15R13            
                                R24R17                                          
  23107553.430   121430981.20307        42.000       -3287.410    94621575.41407
        45.000       -2561.578    23107562.227  
  23206469.063   121950726.00807        42.000       -3166.449    95026585.25004
        28.000       -2467.379    23206471.563  
  23549235.820   123752106.35907        43.000        1916.348    96430196.72704
        28.000        1493.258    23549239.594  
  20821758.109   109419007.25008        50.000        1788.211    85261644.96906
        41.000        1393.414    20821761.461  
  21903277.586   115102516.89108        48.000         333.031    89690279.51608
        48.000         259.500    21903277.016  
  21100136.813   110881974.55908        49.000        -372.313    86401535.35908
        51.000        -290.105    21100137.242  
  22454265.297   117997966.77006        41.000        -621.512    91946434.65604
        27.000        -484.266    22454266.023  
  22406116.766   117744959.60907        43.000        1169.582    91749339.55507
        42.000         911.352    22406117.867  
  22963594.203   120674576.85507        46.000        3054.570    94032113.57405
        35.000        2380.172    22963597.711  
  19383755.352   103326365.15608        51.000        1424.656    80364925.85908
        49.000        1108.000    19383756.766  
  22773782.875   121696323.56308        49.000        4005.617    94652648.61707
        47.000        3115.684    22773782.477  
  20648400.547   110261222.05106        38.000       -2845.664    85758731.73806
        41.000       -2212.758    20648403.289  
  20334547.891   108737955.02008        48.000       -2237.996    84573885.72706
        40.000       -1740.754    20334548.719  
  20534586.984   109884677.39508        51.000         860.117    85465894.54308
        48.000         668.969    20534586.633  
 23  7 24 21 23  7.0000000  0 14G24G11G28G25G29G12G20G05G18R14R15R13            
                                R24R17                                          
  23108178.039   121434263.39507        42.000       -3287.371    94624132.95707
        45.000       -2561.566    23108186.844  
  23207070.727   121953887.21107        42.000       -3166.527    95029048.52004
        28.000       -2467.434    23207073.070  
  23548870.242   123750184.87907        43.000        1915.934    96428699.48004
        28.000        1492.930    23548873.953  
  20821416.992   109417213.89108        50.000        1787.898    85260247.54306
        41.000        1393.164    20821420.156  
  21903213.148   115102178.75808        48.000         332.719    89690016.04308
        48.000         259.258    21903212.656  
  21100206.789   110882341.86308        49.000        -372.793    86401821.57008
        51.000        -290.488    21100207.141  
  22454382.727   117998582.91006        41.000        -621.836    91946914.76204
        27.000        -484.547    22454383.352  
  22405893.391   117743785.01607        43.000        1169.258    91748424.28907
        42.000         911.105    22405894.336  
  22963011.953   120671517.31307        46.000        3054.207    94029729.52705
        35.000        2379.871    22963015.484  
  19383487.164   103324935.56308        51.000        1423.824    80363813.94908
        49.000        1107.422    19383488.641  
  22773032.164   121692312.62508        48.000        4005.441    94649529.00807
        47.000        3115.270    22773031.922  
  20648932.703   110264062.03506        38.000       -2845.789    85760940.62507
        42.000       -2213.418    20648935.242  
  20334965.563   108740187.68808        48.000       -2238.453    84575622.21106
        40.000       -1740.797    20334966.344  
  20534425.477   109883812.29308        51.000         859.348    85465221.69108
        48.000         668.508    20534425.078  
 23  7 24 21 23  8.0000000  0 14G24G11G28G25G29G12G20G05G18R14R15R13            
                                R24R17                                          
  23108802.016   121437541.83607        42.000       -3287.621    94626687.59007
        45.000       -2561.777    23108810.734  
  23207671.500   121957044.76207        42.000       -3166.555    95031508.94504
        28.000       -2467.449    23207674.031  
  23548503.805   123748260.05507        43.000        1915.578    96427199.61304
        28.000        1492.656    23548507.719  
  20821074.898   109415416.95308        50.000        1787.793    85258847.33606
        41.000        1393.074    20821078.219  
  21903148.023   115101836.86708        48.000         332.898    89689749.64108
        48.000         259.398    21903147.578  
  21100275.977   110882705.71908        49.000        -372.938    86402105.09808
        51.000        -290.602    21100276.391  
  22454499.039   117999195.79306        41.000        -621.945    91947392.33204
        27.000        -484.652    22454500.023  
  22405669.203   117742607.00807        43.000        1168.738    91747506.35907
        42.000         910.723    22405670.133  
  22962429.352   120668454.25807        46.000        3053.914    94027342.73805
        35.000        2379.664    22962432.578  
  19383218.359   103323502.82008        51.000        1423.254    80362699.59008
        50.000        1106.891    19383219.914  
  22772280.836   121688297.91808        49.000        4005.488    94646406.45707
        47.000        3115.352    22772280.742  
  20649463.602   110266898.69106        38.000       -2846.426    85763146.92206
        41.000       -2213.707    20649466.250  
  20335382.203   108742416.69108        48.000       -2238.344    84577355.91006
        40.000       -1740.883    20335383.422  
  20534263.039   109882943.85508        51.000         858.953    85464546.23808
        48.000         667.965    20534262.547  
 23  7 24 21 23  9.0000000  0 14G24G11G28G25G29G12G20G05G18R14R15R13            
                                R24R17                                          
  23109428.063   121440832.72307        42.000       -3287.727    94629251.91007
        46.000       -2561.859    23109437.016  
  23208274.664   121960214.86707        42.000       -3167.055    95033979.16404
        28.000       -2467.848    23208277.281  
  23548139.906   123746348.06307        43.000        1915.215    96425709.75404
        28.000        1492.371    23548143.930  
  20820735.188   109413632.66808        50.000        1787.414    85257456.98806
        41.000        1392.789    20820738.680  
  21903085.320   115101507.44108        48.000         332.469    89689492.94508
        48.000         259.063    21903084.875  
  21100347.773   110883082.34008        49.000        -373.734    86402398.57008
        51.000        -291.219    21100348.070  
  22454618.273   117999821.61706        41.000        -623.035    91947879.98804
        27.000        -485.457    22454619.164  
  22405447.547   117741441.80107        43.000        1168.121    91746598.41407
        42.000         910.219    22405448.336  
  22961848.781   120665403.88707        46.000        3053.430    94024965.83605
        35.000        2379.297    22961852.156  
  19382952.008   103322083.34808        51.000        1422.441    80361595.56308
        49.000        1106.281    19382953.680  
  22771531.805   121684295.90608        49.000        4005.184    94643293.79707
        47.000        3114.840    22771531.750  
  20649996.969   110269748.53506        38.000       -2847.078    85765363.44507
        42.000       -2214.199    20649999.883  
  20335801.125   108744658.53508        48.000       -2238.781    84579099.54706
        40.000       -1741.215    20335802.828  
  20534103.023   109882088.57408        51.000         858.172    85463881.02308
        48.000         667.348    20534102.773  
 23  7 24 21 23 10.0000000  0 14G24G11G28G25G29G12G20G05G18R14R15R13            
                                R24R17                                          
  23110054.859   121444127.22307        42.000       -3287.852    94631819.05107
        46.000       -2561.953    23110063.984  
  23208878.766   121963388.69507        42.000       -3166.969    95036452.28104
        28.000       -2467.773    23208881.266  
  23547776.781   123744440.14507        43.000        1914.516    96424223.06604
        28.000        1491.828    23547780.813  
  20820396.359   109411852.20708        50.000        1787.371    85256069.61706
        41.000        1392.758    20820399.859  
  21903023.297   115101181.66008        48.000         332.699    89689239.09408
        48.000         259.238    21903022.867  
  21100420.047   110883462.90608        49.000        -373.785    86402695.10908
        51.000        -291.254    21100420.477  
  22454738.000   118000451.57006        41.000        -623.145    91948370.86304
        28.000        -485.563    22454739.109  
  22405226.180   117740280.55107        43.000        1168.023    91745693.55106
        41.000         910.137    22405227.328  
  22961269.008   120662357.39107        46.000        3053.375    94022591.94905
        35.000        2379.250    22961272.414  
  19382686.539   103320668.18808        51.000        1421.863    80360494.87908
        49.000        1105.871    19382688.219  
  22770783.727   121680297.63308        49.000        4005.137    94640184.02007
        47.000        3115.102    22770783.422  
  20650531.680   110272602.54306        38.000       -2847.527    85767583.25006
        41.000       -2214.691    20650534.508  
  20336221.344   108746904.27008        48.000       -2238.859    84580846.22706
        40.000       -1741.230    20336222.820  
  20533944.313   109881237.44508        51.000         857.969    85463219.04708
        48.000         667.148    20533943.828  
 23  7 24 21 23 11.0000000  0 14G24G11G28G25G29G12G20G05G18R14R15R13            
                                R24R17                                          
  23110679.680   121447409.74607        42.000       -3287.586    94634376.85507
        46.000       -2561.750    23110688.672  
  23209480.328   121966550.68007        42.000       -3167.105    95038916.16004
        28.000       -2467.902    23209483.008  
  23547411.445   123742520.65607        42.000        1914.145    96422727.35904
        28.000        1491.543    23547415.539  
  20820055.422   109410059.99608        50.000        1786.930    85254673.08606
        41.000        1392.406    20820058.797  
  21902959.063   115100843.93408        48.000         332.672    89688975.93008
        48.000         259.215    21902958.609  
  21100490.102   110883831.84808        49.000        -374.277    86402982.59408
        51.000        -291.645    21100490.680  
  22454855.648   118001070.06606        41.000        -623.516    91948852.80904
        28.000        -485.867    22454856.859  
  22405003.266   117739107.72707        43.000        1167.500    91744779.66006
        41.000         909.738    22405004.133  
  22960686.984   120659299.19507        46.000        3052.957    94020208.94105
        35.000        2378.926    22960690.445  
  19382419.016   103319241.52708        51.000        1421.082    80359385.25008
        49.000        1105.379    19382420.688  
  22770033.367   121676287.26208        49.000        4005.000    94637064.83207
        47.000        3115.063    22770033.047  
  20651064.070   110275444.94106        38.000       -2848.621    85769793.98406
        41.000       -2215.293    20651066.781  
  20336639.164   108749138.06608        48.000       -2239.262    84582583.63706
        41.000       -1741.496    20336640.539  
  20533783.180   109880374.57808        51.000         857.418    85462547.92208
        48.000         666.801    20533782.617  
 23  7 24 21 23 12.0000000  0 14G24G11G28G25G29G12G20G05G18R14R15R13            
                                R24R17                                          
  23111304.836   121450694.23007        42.000       -3287.746    94636936.19107
        46.000       -2561.855    23111313.734  
  23210082.156   121969714.71107        42.000       -3167.402    95041381.64104
        27.000       -2468.129    23210085.125  
  23547046.727   123740603.54307        43.000        1913.242    96421233.51604
        28.000        1490.824    23547050.750  
  20819714.648   109408269.93008        50.000        1786.555    85253278.23006
        41.000        1392.133    20819718.148  
  21902895.164   115100508.17608        48.000         332.402    89688714.30508
        48.000         259.012    21902894.703  
  21100560.914   110884203.06308        49.000        -374.777    86403271.85508
        51.000        -292.039    21100561.328  
  22454974.227   118001691.03906        41.000        -624.824    91949336.68004
        28.000        -486.852    22454975.023  
  22404780.367   117737937.16807        43.000        1167.133    91743867.53906
        41.000         909.449    22404781.352  
  22960105.211   120656243.20307        46.000        3052.465    94017827.65205
        35.000        2378.531    22960108.914  
  19382151.828   103317817.48808        51.000        1420.230    80358277.66808
        49.000        1104.734    19382153.508  
  22769283.141   121672278.91408        49.000        4004.805    94633947.23407
        47.000        3114.887    22769282.992  
  20651596.422   110278289.82806        38.000       -2848.555    85772006.68007
        42.000       -2215.504    20651599.383  
  20337057.172   108751374.05908        48.000       -2239.641    84584322.73406
        40.000       -1741.742    20337058.563  
  20533622.250   109879514.14808        51.000         856.656    85461878.69108
        48.000         666.355    20533621.695  
 23  7 24 21 23 13.0000000  0 14G24G11G28G25G29G12G20G05G18R14R15R13            
                                R24R17                                          
  23111931.883   121453990.87507        42.000       -3287.934    94639505.00007
        46.000       -2562.020    23111941.102  
  23210686.727   121972891.02307        42.000       -3167.520    95043856.69504
        27.000       -2468.184    23210689.516  
  23546684.625   123738699.01207        42.000        1913.125    96419749.46904
        28.000        1490.770    23546688.352  
  20819376.391   109406492.24608        50.000        1786.117    85251893.02006
        41.000        1391.785    20819379.867  
  21902833.602   115100184.61308        48.000         332.035    89688462.18008
        48.000         258.723    21902833.117  
  21100633.898   110884586.77008        49.000        -375.363    86403570.85208
        51.000        -292.488    21100634.344  
  22455095.156   118002324.68806        41.000        -625.680    91949830.43804
        28.000        -487.551    22455095.656  
  22404560.172   117736779.14807        43.000        1166.207    91742965.19106
        41.000         908.734    22404560.953  
  22959526.078   120653199.61707        46.000        3052.074    94015456.03905
        35.000        2378.234    22959529.742  
  19381887.148   103316406.44508        51.000        1419.316    80357180.19108
        49.000        1103.859    19381888.828  
  22768535.406   121668283.03508        49.000        4004.453    94630839.33607
        47.000        3114.563    22768535.344  
  20652132.188   110281147.65606        38.000       -2849.695    85774229.41807
        42.000       -2216.199    20652134.570  
  20337477.789   108753622.63308        48.000       -2240.039    84586071.60506
        41.000       -1741.914    20337478.859  
  20533463.984   109878666.59808        51.000         855.922    85461219.48808
        48.000         665.602    20533463.258  
 23  7 24 21 23 14.0000000  0 14G24G11G28G25G29G12G20G05G18R14R15R13            
                                R24R17                                          
  23112557.914   121457280.02307        42.000       -3287.723    94642067.96507
        46.000       -2561.836    23112567.055  
  23211289.727   121976059.97307        42.000       -3167.973    95046326.00004
        27.000       -2468.555    23211292.492  
  23546320.945   123736787.42207        43.000        1912.492    96418259.91004
        28.000        1490.266    23546324.508  
  20819036.734   109404707.25808        50.000        1786.219    85250502.12106
        41.000        1391.848    20819040.172  
  21902770.719   115099853.56608        48.000         332.242    89688204.22708
        48.000         258.891    21902770.141  
  21100705.422   110884963.29708        49.000        -375.465    86403864.25008
        51.000        -292.563    21100705.977  
  22455214.258   118002951.33207        42.000        -625.934    91950318.72704
        28.000        -487.750    22455214.969  
  22404338.008   117735614.00007        43.000        1166.285    91742057.28106
        41.000         908.797    22404339.242  
  22958945.797   120650148.81307        46.000        3051.891    94013078.78905
        35.000        2378.082    22958949.188  
  19381621.242   103314988.45708        51.000        1418.953    80356077.31608
        49.000        1103.441    19381622.836  
  22767786.375   121664279.61708        49.000        4004.520    94627725.56607
        47.000        3114.680    22767786.211  
  20652666.008   110283998.34806        38.000       -2849.633    85776446.62107
        42.000       -2216.203    20652668.594  
  20337897.242   108755863.77708        48.000       -2240.039    84587814.75006
        41.000       -1742.340    20337898.125  
  20533304.563   109877811.93808        51.000         855.625    85460554.74608
        48.000         665.594    20533303.656  
 23  7 24 21 23 15.0000000  0 14G24G11G28G25G29G12G20G05G18R14R15R13            
                                R24R17                                          
  23113181.492   121460555.08207        42.000       -3288.371    94644619.94507
        46.000       -2562.336    23113190.313  
  23211890.555   121979214.89507        42.000       -3168.070    95048784.38304
        27.000       -2468.629    23211892.828  
  23545954.148   123734862.11707        42.000        1911.586    96416759.67204
        27.000        1489.539    23545958.102  
  20818694.547   109402908.36708        50.000        1785.422    85249100.38706
        41.000        1391.242    20818697.844  
  21902704.891   115099508.43408        48.000         331.895    89687935.28908
        48.000         258.590    21902704.461  
  21100774.391   110885326.05908        49.000        -376.227    86404146.92208
        51.000        -293.160    21100775.008  
  22455330.711   118003564.35907        42.000        -626.215    91950796.41404
        28.000        -487.957    22455331.656  
  22404113.539   117734435.09807        43.000        1165.441    91741138.65206
        41.000         908.129    22404114.891  
  22958362.781   120647084.13307        46.000        3051.027    94010690.73405
        35.000        2377.422    22958365.977  
  19381352.711   103313556.85208        51.000        1417.820    80354963.84008
        49.000        1102.707    19381354.281  
  22767034.453   121660261.89808        49.000        4004.199    94624600.67607
        47.000        3114.293    22767034.328  
  20653197.430   110286835.25406        38.000       -2850.586    85778653.12907
        42.000       -2217.391    20653199.727  
  20338313.844   108758090.75008        48.000       -2240.387    84589546.82406
        40.000       -1742.441    20338314.594  
  20533142.297   109876943.39108        51.000         854.789    85459879.22308
        48.000         664.801    20533141.305  
 23  7 24 21 23 16.0000000  0 14G24G11G28G25G29G12G20G05G18R14R15R13            
                                R24R17                                          
  23113806.125   121463837.19107        42.000       -3288.566    94647177.43807
        46.000       -2562.539    23113814.906  
  23212492.102   121982376.99607        42.000       -3168.172    95051248.35904
        27.000       -2468.707    23212494.484  
  23545588.906   123732944.29707        43.000        1911.434    96415265.28104
        27.000        1489.355    23545593.125  
  20818353.516   109401116.73008        50.000        1785.316    85247704.30906
        41.000        1391.145    20818356.914  
  21902640.484   115099170.37908        48.000         331.727    89687671.87908
        48.000         258.492    21902640.109  
  21100844.742   110885696.19508        49.000        -376.445    86404435.34008
        51.000        -293.324    21100845.445  
  22455448.648   118004184.97307        42.000        -626.898    91951280.01204
        28.000        -488.461    22455449.844  
  22403890.852   117733263.60207        43.000        1164.773    91740225.80106
        41.000         907.609    22403891.891  
  22957780.766   120644026.76607        47.000        3051.168    94008308.37905
        35.000        2377.516    22957784.219  
  19381085.500   103312133.07808        51.000        1417.250    80353856.47308
        49.000        1102.137    19381087.102  
  22766283.828   121656251.39108        49.000        4004.176    94621481.39807
        47.000        3114.258    22766283.797  
  20653729.750   110289679.85906        38.000       -2850.910    85780865.59407
        42.000       -2217.477    20653732.281  
  20338731.508   108760325.09808        48.000       -2240.746    84591284.64506
        40.000       -1742.426    20338732.195  
  20532981.289   109876082.47708        51.000         854.348    85459209.62108
        48.000         664.527    20532980.266  
 23  7 24 21 23 17.0000000  0 14G24G11G28G25G29G12G20G05G18R14R15R13            
                                R24R17                                          
  23114433.414   121467135.65206        41.000       -3288.309    94649747.68007
        46.000       -2562.313    23114442.617  
  23213096.875   121985555.57407        42.000       -3168.324    95053725.18804
        27.000       -2468.824    23213099.359  
  23545226.922   123731043.26607        43.000        1911.316    96413783.96504
        27.000        1489.313    23545231.359  
  20818015.609   109399341.67208        50.000        1785.316    85246321.15206
        41.000        1391.152    20818019.125  
  21902579.234   115098848.71908        48.000         331.922    89687421.23808
        48.000         258.621    21902578.875  
  21100918.422   110886083.02708        49.000        -376.539    86404736.77308
        51.000        -293.406    21100919.055  
  22455570.117   118004822.46906        41.000        -627.418    91951776.76204
        28.000        -488.906    22455571.203  
  22403670.977   117732108.82807        42.000        1165.094    91739325.98806
        41.000         907.875    22403672.086  
  22957202.250   120640986.03507        46.000        3050.910    94005938.98805
        35.000        2377.324    22957205.594  
  19380821.664   103310726.57008        51.000        1416.738    80352762.51208
        49.000        1102.012    19380823.250  
  22765536.484   121652257.57808        49.000        4004.375    94618375.10207
        47.000        3114.328    22765536.383  
  20654265.625   110292541.64106        38.000       -2851.316    85783091.42206
        41.000       -2218.027    20654268.234  
  20339152.398   108762576.27708        48.000       -2240.621    84593035.58606
        40.000       -1743.141    20339152.875  
  20532823.750   109875238.68408        51.000         854.094    85458553.34408
        48.000         664.203    20532822.570  
 23  7 24 21 23 18.0000000  0 14G24G11G28G25G29G12G20G05G18R14R15R13            
                                R24R17                                          
  23115061.078   121470433.63307        42.000       -3288.695    94652317.52007
        46.000       -2562.645    23115070.227  
  23213701.555   121988733.75407        42.000       -3168.645    95056201.68804
        27.000       -2469.070    23213704.063  
  23544865.742   123729142.16407        43.000        1910.199    96412302.58604
        27.000        1488.441    23544869.516  
  20817678.008   109397566.31608        50.000        1784.625    85244937.76206
        41.000        1390.617    20817681.281  
  21902517.875   115098526.57008        48.000         331.527    89687170.21508
        48.000         258.336    21902517.586  
  21100991.992   110886469.69108        49.000        -377.469    86405038.06608
        51.000        -294.129    21100992.617  
  22455691.469   118005459.96507        42.000        -628.148    91952273.52004
        28.000        -489.473    22455692.516  
  22403451.289   117730953.94107        42.000        1164.555    91738426.07806
        41.000         907.445    22403452.320  
  22956623.617   120637945.04307        47.000        3050.352    94003569.39105
        35.000        2376.883    22956626.891  
  19380557.938   103309320.16808        51.000        1415.695    80351668.65208
        49.000        1101.063    19380559.328  
  22764789.156   121648263.32808        49.000        4003.957    94615268.47307
        47.000        3114.059    22764788.961  
  20654801.766   110295403.44106        38.000       -2852.508    85785317.27007
        42.000       -2218.719    20654804.234  
  20339573.516   108764827.17608        48.000       -2241.434    84594786.26206
        40.000       -1743.234    20339573.961  
  20532666.523   109874394.85208        51.000         853.313    85457897.03508
        48.000         663.512    20532665.109  
 23  7 24 21 23 19.0000000  0 14G24G11G28G25G29G12G20G05G18R14R15R13            
                                R24R17                                          
  23115686.133   121473717.85907        42.000       -3288.363    94654876.65607
        46.000       -2562.328    23115695.203  
  23214303.852   121991898.31607        42.000       -3168.758    95058667.58604
        27.000       -2469.184    23214306.242  
  23544501.586   123727227.73407        42.000        1909.941    96410810.81604
        27.000        1488.234    23544505.133  
  20817337.484   109395777.44108        50.000        1784.371    85243543.83607
        42.000        1390.418    20817340.844  
  21902454.055   115098190.69908        48.000         331.684    89686908.49208
        48.000         258.465    21902453.680  
  21101063.031   110886842.94108        49.000        -377.621    86405328.90608
        51.000        -294.254    21101063.633  
  22455810.547   118006084.22707        42.000        -628.926    91952759.95704
        28.000        -490.074    22455811.203  
  22403228.664   117729785.66407        42.000        1163.922    91737515.73006
        41.000         906.949    22403229.992  
  22956042.039   120634890.59007        46.000        3049.930    94001189.29705
        35.000        2376.566    22956045.633  
  19380291.625   103307900.48808        51.000        1415.047    80350564.44908
        49.000        1100.727    19380293.047  
  22764039.195   121644255.20308        49.000        4003.773    94612151.03507
        47.000        3114.102    22764039.016  
  20655334.719   110298251.82406        38.000       -2852.852    85787532.67206
        41.000       -2218.918    20655337.531  
  20339991.969   108767064.33208        48.000       -2241.449    84596526.27306
        39.000       -1743.336    20339992.141  
  20532506.578   109873537.52708        51.000         852.773    85457230.22308
        48.000         663.383    20532505.008  
 23  7 24 21 23 20.0000000  0 14G24G11G28G25G29G12G20G05G18R14R15R13            
                                R24R17                                          
  23116310.172   121476997.52707        42.000       -3288.648    94657432.24207
        46.000       -2562.582    23116319.320  
  23214905.313   121995058.41807        42.000       -3169.219    95061130.00004
        27.000       -2469.512    23214907.586  
  23544136.148   123725309.16807        42.000        1909.156    96409315.82804
        27.000        1487.660    23544140.008  
  20816996.078   109393984.17208        50.000        1784.113    85242146.48807
        42.000        1390.211    20816999.602  
  21902389.219   115097850.29708        48.000         331.191    89686643.25008
        48.000         258.082    21902388.883  
  21101132.977   110887211.94108        49.000        -378.117    86405616.43808
        51.000        -294.641    21101133.852  
  22455928.891   118006704.43407        42.000        -629.824    91953243.23004
        28.000        -490.785    22455929.188  
  22403005.516   117728613.17607        42.000        1163.129    91736602.11306
        41.000         906.324    22403006.836  
  22955460.195   120631831.80507        46.000        3049.695    93998805.83205
        35.000        2376.387    22955463.578  
  19380024.461   103306476.81308        51.000        1414.281    80349457.14808
        49.000        1099.988    19380026.000  
  22763288.258   121640242.48008        49.000        4003.480    94609030.03907
        47.000        3113.762    22763288.047  
  20655867.820   110301096.10206        38.000       -2853.656    85789744.88707
        42.000       -2219.730    20655870.227  
  20340409.258   108769297.00808        48.000       -2241.938    84598262.80906
        39.000       -1743.863    20340409.586  
  20532345.469   109872676.02008        51.000         852.195    85456560.16408
        48.000         662.824    20532344.047  
 23  7 24 21 23 21.0000000  0 14G24G11G28G25G29G12G20G05G18R14R15R13            
                                R24R17                                          
  23116936.422   121480288.85907        42.000       -3288.707    94659996.91807
        46.000       -2562.633    23116945.656  
  23215508.781   121998230.30107        42.000       -3169.215    95063601.60904
        27.000       -2469.551    23215511.242  
  23543773.500   123723402.68807        42.000        1908.730    96407830.27704
        27.000        1487.293    23543777.148  
  20816657.125   109392202.79308        49.000        1784.125    85240758.40207
        42.000        1390.227    20816660.617  
  21902326.531   115097521.56307        47.000         331.570    89686387.10208
        48.000         258.363    21902326.305  
  21101205.547   110887592.93808        49.000        -378.336    86405913.32008
        51.000        -294.797    21101206.344  
  22456048.914   118007336.79707        42.000        -629.523    91953735.98804
        28.000        -490.539    22456049.578  
  22402785.133   117727452.74207        42.000        1162.734    91735697.88306
        41.000         906.016    22402786.008  
  22954880.258   120628784.95307        46.000        3049.297    93996431.67205
        35.000        2376.070    22954883.797  
  19379759.625   103305065.62508        51.000        1413.777    80348359.56308
        49.000        1099.508    19379761.258  
  22762539.469   121636241.69908        49.000        4003.625    94605918.31607
        47.000        3114.020    22762539.430  
  20656402.477   110303952.76206        38.000       -2854.379    85791966.72307
        42.000       -2219.816    20656405.227  
  20340828.727   108771541.72308        48.000       -2241.855    84600008.69506
        39.000       -1743.766    20340829.367  
  20532186.648   109871826.86708        51.000         851.840    85455899.70708
        48.000         662.512    20532185.430  
 23  7 24 21 23 22.0000000  0 14G24G11G28G25G29G12G20G05G18R14R15R13            
                                R24R17                                          
  23117563.352   121483583.92607        42.000       -3288.613    94662564.49207
        46.000       -2562.559    23117572.711  
  23216113.297   122001406.01207        42.000       -3169.457    95066076.18004
        27.000       -2469.730    23216115.492  
  23543411.313   123721500.33207        42.000        1908.754    96406347.91804
        27.000        1487.340    23543415.063  
